eventid,year,month,day,approxdate,extended,resolution,country,province,city,latitude,longitude,specificity,near_city,location,summary,crit1,crit2,crit3,doubted,alternative,multiple_attacks,success,suicide,attacktype1,attacktype2,attacktype3,targtype1,targsubtype1,corp1,target1,natlty1,targtype2,targsubtype2,corp2,target2,natlty2,targtype3,targsubtype3,corp3,target3,natlty3,gname,gsubname,gname2,gsubname2,gname3,gsubname3,motive,lone_wolf,nperps,nperpcap,claimed,claimmode,claim2,claimmode2,claim3,claimmode3,compclaim,weaptype1,weapsubtype1,weaptype2,weapsubtype2,weaptype3,weapsubtype3,weaptype4,weapsubtype4,weapdetail,nkill,nkillus,nkillperp,nwound,nwoundus,nwoundperp,property,propextent,propextent,propvalue,propcomment,ishostkid,nhostkid,nhostkidus,nhours,ndays,vehiclehij,kidhijcountry,ransom,ransomamt,ransomamtus,ransompaid,ransompaidus,ransomnote,hostkidoutcome,nreleased,addnotes,scite1,scite2,scite3,intlog,intideo,intmisc,related
198407000003,1984,7,0,,0,,Burkina Faso,Centre,Ouagadougou suburb,12.347598,-1.538065,1.0,1,,,1,1,1,0,,0.0,1,0,Assassination,,,Government (General),Politician or Political Party Movement/Meeting/Rally,Upper Volta Armed Forces,"Deputy chief of staff, Mayor Amadou Savadogo",Burkina Faso,,,,,,,,,,,Unknown,,,,,,,0,,,,,,,,,,Firearms,Automatic or Semi-Automatic Rifle,,,,,,,Submachine gun,1.0,,,0.0,,,0,,,,,0.0,,,,,,,0.0,,,,,,,,,,,,-9,-9,0,
198505290011,1985,5,29,,0,,Niger,Tahoua,Tchin Tabaraden,15.898,5.803,1.0,0,,,1,1,1,0,,0.0,1,0,Unknown,,,Government (General),Government Building/Facility/Office,,Town and local govt. offices,Niger,,,,,,,,,,,People's Liberation Front of Niger,,,,,,,0,14.0,,,,,,,,,Unknown,,,,,,,,,3.0,,,0.0,,,1,,,,,0.0,,,,,,,0.0,,,,,,,,,,,,0,0,0,
198909190005,1989,9,19,,0,,Niger,Zinder,Goure district,16.864946,11.953771,1.0,0,,,1,1,1,0,,0.0,1,0,Bombing/Explosion,,,Airports & Aircraft,Aircraft (not at an airport),Union des Transports Aeriens (UTA),DC - 10 aircraft,France,,,,,,,,,,,Hezbollah,Islamic Jihad,,,,,,0,,,,,,,,,,Explosives,Unknown Explosive Type,,,,,,,Explosive,171.0,7.0,,0.0,,,1,,,,,0.0,,,,,,,0.0,,,,,,,,,,,,1,1,1,
199006290001,1990,6,29,,0,,Mali,Gao,Menaka,15.914432,2.397368,1.0,0,,,1,1,1,0,,0.0,1,0,Armed Assault,,,Private Citizens & Property,Village/City/Town/Suburb,Govt,town of Menaka,Mali,,,,,,,,,,,Islamic Legion,,,,,,,0,,,,,,,,,,Firearms,Automatic or Semi-Automatic Rifle,,,,,,,Automatic firearm,14.0,,,1.0,,,1,,,,,1.0,1.0,0.0,0.0,,,,0.0,,,,,,,,,,,,0,0,0,
199101110003,1991,1,11,,0,,Mali,Unknown,Unknown,,,5.0,0,,,1,1,1,-9,,0.0,1,0,Assassination,,,Business,Multinational Corporation,Citroen,Truck Driver Charles Cabannes*,France,,,,,,,,,,,Unknown,,,,,,,0,,,,,,,,,,Firearms,Automatic or Semi-Automatic Rifle,,,,,,,Automatic firearm,1.0,,0.0,0.0,,0.0,0,,,,,0.0,,,,,,,0.0,,,,,,,,,,,,-9,-9,1,
199102180010,1991,2,18,,0,,Niger,Agadez,In Abangarit,17.905421,6.04542,1.0,0,,,1,1,1,-9,,0.0,1,0,Armed Assault,,,NGO,,Common Organization for the fight against locusts,Camp of above organization,International,Unknown,,,,,,,,,,Tuareg extremists,Dissidents,,,,,,0,,,,,,,,,,Firearms,Automatic or Semi-Automatic Rifle,,,,,,,Automatic firearm,1.0,,,0.0,,,1,,,,,0.0,,,,,,,0.0,,,,,,,,,,,,-9,-9,1,
199102210007,1991,2,21,,0,,Mali,Gao,Bourem,17.669798,-0.299735,1.0,0,,,1,1,1,-9,,0.0,1,0,Armed Assault,,,Business,Industrial/Textiles/Factory,,Phosphate Factory,Mali,,,,,,,,,,,Tuareg extremists,Rebels,,,,,,0,,,,,,,,,,Firearms,Automatic or Semi-Automatic Rifle,,,,,,,Automatic firearm,2.0,,,0.0,,,1,,,,,0.0,,,,,,,0.0,,,,,,,,,,,,-9,-9,0,
199102240002,1991,2,24,,0,,Niger,Niamey,Niamey,13.516667,2.116667,1.0,0,,,1,1,1,-9,,0.0,1,0,Facility/Infrastructure Attack,,,Government (Diplomatic),Embassy/Consulate,U.S. State Department,American Cultrual center,United States,,,,,,,,,,,Unknown,,,,,,,0,,,,,,,,,,Incendiary,,,,,,,,Incendiary,0.0,,,0.0,,,1,3.0,Minor (likely < $1 million),20000.0,,0.0,,,,,,,0.0,,,,,,,,,,,,-9,-9,1,
199104060007,1991,4,6,,0,,Mali,Unknown,Unknown,,,5.0,0,,,0,1,1,1,Other Crime Type,0.0,1,0,Armed Assault,,,Private Citizens & Property,Village/City/Town/Suburb,Govt,Town of Tiltis,Mali,,,,,,,,,,,Unknown,,,,,,,0,,,,,,,,,,Firearms,Automatic or Semi-Automatic Rifle,,,,,,,Automatic firearm,0.0,,,0.0,,,1,,,,,0.0,,,,,,,0.0,,,,,,,,,,,,-9,-9,0,
199105050005,1991,5,5,,0,,Mali,Timbuktu,Tonka,16.13444,-3.748766,1.0,0,,,1,1,1,0,,0.0,1,0,Armed Assault,,,Private Citizens & Property,Village/City/Town/Suburb,Govt,Town in Tonka District,Mali,,,,,,,,,,,Tuareg extremists,Dissidents,,,,,,0,,,,,,,,,,Firearms,Automatic or Semi-Automatic Rifle,,,,,,,Automatic firearm,0.0,,,0.0,,,1,,,,,0.0,,,,,,,0.0,,,,,,,,,,,,-9,-9,0,
199105120009,1991,5,12,,0,,Mali,Mopti,Mopti,14.498063,-4.198136,1.0,1,,,1,1,1,-9,,0.0,1,0,Armed Assault,,,Government (General),Government Building/Facility/Office,Govt,Government Bldg,Mali,,,,,,,,,,,Unknown,,,,,,,0,,,,,,,,,,Firearms,Automatic or Semi-Automatic Rifle,,,,,,,Automatic firearm,1.0,,,2.0,,,1,,,,,0.0,,,,,,,0.0,,,,,,,,,,,,-9,-9,0,
199105200007,1991,5,20,,0,,Mali,Timbuktu,Goundam,16.416667,-3.666667,1.0,0,,,1,1,1,-9,,0.0,1,0,Armed Assault,,,Private Citizens & Property,Village/City/Town/Suburb,Govt,Town of Goundam,Mali,,,,,,,,,,,Tuareg extremists,Rebels,,,,,,0,,,,,,,,,,Firearms,Automatic or Semi-Automatic Rifle,,,,,,,Automatic firearm,3.0,,,0.0,,,1,,,,,0.0,,,,,,,0.0,,,,,,,,,,,,-9,-9,0,
199106020010,1991,6,2,,0,,Niger,Tillaberi,Yassan,14.916667,0.85,1.0,0,,,1,1,1,-9,,0.0,1,0,Armed Assault,,,Government (General),Government Building/Facility/Office,govt,Border Control Post,Niger,,,,,,,,,,,Tuareg Guerrillas,Guerrillas,,,,,,0,6.0,,,,,,,,,Firearms,Automatic or Semi-Automatic Rifle,,,,,,,Automatic firearm,2.0,,,0.0,,,1,,,,,0.0,,,,,,,0.0,,,,,,,,,,,,-9,-9,0,
199111010004,1991,11,1,,0,,Mali,Gao,Gao,16.273971,-0.041066,1.0,0,,,1,1,1,-9,,0.0,1,0,Bombing/Explosion,,,Private Citizens & Property,Vehicles/Transportation,,Vehicle,Mali,,,,,,,,,,,Tuareg Guerrillas,Guerrillas,,,,,,0,,,,,,,,,,Explosives,Unknown Explosive Type,,,,,,,Explosive,3.0,,,0.0,,,1,,,,,0.0,,,,,,,0.0,,,,,,,,,,,,-9,-9,0,
199111090008,1991,11,9,,0,,Mali,Timbuktu,Goundam,16.416667,-3.666667,1.0,0,,,1,1,0,1,Insurgency/Guerilla Action,0.0,1,0,Armed Assault,,,Military,Military Unit/Patrol/Convoy,Military,Unit,Mali,,,,,,,,,,,Tuareg extremists,Rebels,,,,,,0,,,,,,,,,,Firearms,Automatic or Semi-Automatic Rifle,,,,,,,Automatic firearm,11.0,,,0.0,,,1,,,,,0.0,,,,,,,0.0,,,,,,,,,,,,-9,-9,0,
199111140007,1991,11,14,,0,,Mali,Gao,Ansongo,15.666816,0.508533,1.0,0,,,1,1,1,-9,,0.0,1,0,Armed Assault,,,Government (General),Government Building/Facility/Office,Govt,Official Vehicle Convoy,Mali,,,,,,,,,,,Tuareg extremists,,,,,,,0,,,,,,,,,,Firearms,Automatic or Semi-Automatic Rifle,,,,,,,Automatic firearm,2.0,,,7.0,,,1,,,,,0.0,,,,,,,0.0,,,,,,,,,,,,-9,-9,0,
199112050007,1991,12,5,,0,,Mali,Unknown,Unknown,,,5.0,0,,,1,1,1,0,,0.0,1,0,Armed Assault,,,Private Citizens & Property,Village/City/Town/Suburb,Govt,Town of Korakawa,Mali,,,,,,,,,,,Tuareg extremists,Rebels,,,,,,0,,,,,,,,,,Firearms,Automatic or Semi-Automatic Rifle,,,,,,,Automatic firearm,2.0,,,0.0,,,1,,,,,0.0,,,,,,,0.0,,,,,,,,,,,,-9,-9,0,
199112090002,1991,12,9,,0,,Burkina Faso,Centre,Ouagadougou,12.347598,-1.538065,1.0,0,,,1,1,1,0,,0.0,0,0,Assassination,,,Government (General),Politician or Political Party Movement/Meeting/Rally,Groupes des Democrates Revolutionaires,Gen Secy for external affairs Tall Moctar,Burkina Faso,,,,,,,,,,,Unknown,,,,,,,0,,,,,,,,,,Firearms,Handgun,,,,,,,Pistol,0.0,,,1.0,,,0,,,,,0.0,,,,,,,0.0,,,,,,,,,,,,-9,-9,0,
199112100001,1991,12,10,,0,,Burkina Faso,Centre,Ouagadougou,12.347598,-1.538065,1.0,0,,,1,1,1,0,,0.0,1,0,Assassination,,,Government (General),Politician or Political Party Movement/Meeting/Rally,Burkinabe labor party,secy gen. clement ouedraogo,Burkina Faso,,,,,,,,,,,Unknown,,,,,,,0,2.0,,,,,,,,,Explosives,Grenade,,,,,,,Grenade,1.0,,,1.0,,,1,,,,,0.0,,,,,,,0.0,,,,,,,,,,,,-9,-9,0,
199112110010,1991,12,11,,0,,Mali,Timbuktu,TImbuktu,16.77532,-3.008265,1.0,0,,,1,1,1,0,,0.0,1,0,Armed Assault,,,Private Citizens & Property,Village/City/Town/Suburb,Govt,City of Timbuktu,Mali,,,,,,,,,,,Tuareg extremists,Separatists,,,,,,0,,,,,,,,,,Firearms,Automatic or Semi-Automatic Rifle,,,,,,,Automatic firearm,12.0,,,7.0,,,1,,,,,0.0,,,,,,,0.0,,,,,,,,,,,,-9,-9,0,
199112120006,1991,12,12,,0,,Niger,Agadez,Iferouane,19.0625,8.42,1.0,1,,,1,1,0,1,Insurgency/Guerilla Action,0.0,1,0,Armed Assault,,,Military,Military Unit/Patrol/Convoy,Military,Army Patrol,Niger,,,,,,,,,,,Tuareg Guerrillas,Guerrillas,,,,,,0,,,,,,,,,,Firearms,Automatic or Semi-Automatic Rifle,,,,,,,Automatic firearm,3.0,,,0.0,,,1,,,,,0.0,,,,,,,0.0,,,,,,,,,,,,-9,-9,0,
199112230009,1991,12,23,,0,,Mali,Timbuktu,Timbuktu,16.77532,-3.008265,1.0,0,,,1,1,1,-9,,0.0,1,0,Armed Assault,,,Business,Medical/Pharmaceutical,,Maternity Clinic,Mali,,,,,,,,,,,Tuareg extremists,Rebels,,,,,,0,,,,,,,,,,Firearms,Automatic or Semi-Automatic Rifle,,,,,,,Automatic firearm,6.0,,,3.0,,,1,,,,,0.0,,,,,,,0.0,,,,,,,,,,,,-9,-9,0,
199112250010,1991,12,25,,0,,Niger,Tillaberi,Mangaize,14.68153,1.954201,2.0,0,,,1,1,1,0,,0.0,1,0,Armed Assault,,,Private Citizens & Property,Village/City/Town/Suburb,govt,Village of Mangaize,Niger,,,,,,,,,,,Tuareg Guerrillas,Guerrillas,,,,,,0,,,,,,,,,,Firearms,Automatic or Semi-Automatic Rifle,,,,,,,Automatic firearm,1.0,,,0.0,,,1,,,,,0.0,,,,,,,0.0,,,,,,,,,,,,-9,-9,0,
199112300011,1991,12,30,,0,,Niger,Agadez,Aderbissinat,15.620232,7.894257,1.0,0,,,1,1,1,0,,0.0,1,0,Hostage Taking (Kidnapping),,,Private Citizens & Property,Village/City/Town/Suburb,govt,town of Anderbissinat,Niger,,,,,,,,,,,Tuareg Guerrillas,Guerrillas,,,,,,0,,,,,,,,,,Firearms,Automatic or Semi-Automatic Rifle,,,,,,,Automatic firearm,1.0,,,2.0,,,1,,,,,1.0,1.0,0.0,,,,,0.0,,,,,,,,,,,,-9,-9,0,
199201220016,1992,1,22,,0,,Niger,Agadez,Arlit,18.7325,7.368056,1.0,1,,,1,1,1,-9,,0.0,1,0,Armed Assault,,,Tourists,Tour Bus/Van,,Tourist Vehicle Carrying French tourists,France,Tourists,Tour Bus/Van,,Tourist Vehicle Carrying Italian tourists,Italy,Tourists,Tour Bus/Van,,Tourist Vehicle Carrying German tourists,Germany,Tuareg Guerrillas,Guerrillas,,,,,,0,,,,,,,,,,Firearms,Automatic or Semi-Automatic Rifle,,,,,,,Automatic firearm,0.0,,,4.0,,,1,3.0,Minor (likely < $1 million),20000.0,,0.0,,,,,,,0.0,,,,,,,,,,,,-9,-9,1,
199202090004,1992,2,9,,0,,Niger,Agadez,Agadez,16.974169,7.986535,1.0,1,,,1,1,0,1,Insurgency/Guerilla Action,0.0,1,0,Armed Assault,,,Military,Military Unit/Patrol/Convoy,Paramilitary Police,Patrol,Niger,,,,,,,,,,,Tuareg Guerrillas,Guerrillas,,,,,,0,,,,,,,,,,Firearms,Automatic or Semi-Automatic Rifle,,,,,,,Automatic firearm,3.0,,,3.0,,,1,,,,,0.0,,,,,,,0.0,,,,,,,,,,,,-9,-9,0,
199202190015,1992,2,19,,0,,Niger,Agadez,Arlit district,18.28183,8.00003,3.0,1,,,1,1,1,0,,0.0,1,0,Hostage Taking (Kidnapping),,,Government (General),"Government Personnel (excluding police, military)",Govt,"6 conservation project workers, head of a conservation project, 2 forest*",Niger,,,,,,,,,,,Air and Azawak Liberation Front,,,,,,,0,,,,,,,,,,Firearms,Automatic or Semi-Automatic Rifle,,,,,,,Automatic firearm,0.0,,,0.0,,,0,,,,,1.0,6.0,0.0,,,,Niger,0.0,,,,,,,,,,,,0,0,0,
199203150012,1992,3,15,,0,,Niger,Iferouane,Iferouane,19.0625,8.42,1.0,0,,,1,1,1,0,,0.0,1,0,Bombing/Explosion,,,Private Citizens & Property,Village/City/Town/Suburb,Govt,Village of Iferouane,Niger,,,,,,,,,,,Air and Azawak Liberation Front,,,,,,,0,80.0,,,,,,,,,Explosives,"Projectile (rockets, mortars, RPGs, etc.)",Firearms,Automatic or Semi-Automatic Rifle,,,,,Rocket; Automatic firearm,3.0,,,0.0,,,1,,,,,0.0,,,,,,,0.0,,,,,,,,,,,,0,0,0,
199205240008,1992,5,24,,0,,Niger,Tillaberi,Bankilare,14.5775,0.727222,1.0,0,,,1,1,1,0,,0.0,1,0,Armed Assault,,,Private Citizens & Property,Village/City/Town/Suburb,Govt,Village of Bankilare,Niger,,,,,,,,,,,Tuareg Guerrillas,Guerrillas,,,,,,0,,,,,,,,,,Firearms,Automatic or Semi-Automatic Rifle,,,,,,,Automatic firearm,1.0,,,2.0,,,1,,,,,0.0,,,,,,,0.0,,,,,,,,,,,,-9,-9,0,
199206120012,1992,6,12,,0,,Niger,Iferouane,Iferouane,19.0625,8.42,1.0,0,,,1,1,0,1,Insurgency/Guerilla Action,0.0,1,0,Armed Assault,,,Military,Military Unit/Patrol/Convoy,Military,Unit,Niger,,,,,,,,,,,Tuareg Guerrillas,Guerrillas,,,,,,0,,,,,,,,,,Firearms,Automatic or Semi-Automatic Rifle,,,,,,,Automatic firearm,13.0,,,0.0,,,1,,,,,0.0,,,,,,,0.0,,,,,,,,,,,,-9,-9,0,
199206270014,1992,6,27,,0,,Niger,Tahoua,I-n-Safari,14.9411,5.7509,1.0,0,,,1,1,1,-9,,0.0,1,0,Armed Assault,,,Private Citizens & Property,Farmer,Hausa tribe,Farmers Group,Niger,,,,,,,,,,,Tuareg extremists,,,,,,,0,,,,,,,,,,Melee,Knife or Other Sharp Object,,,,,,,Knife,0.0,,,0.0,,,1,,,,,0.0,,,,,,,0.0,,,,,,,,,,,,-9,-9,0,
199207060016,1992,7,6,,0,,Mali,Mopti,Dioura,14.885063,-5.2202210000000004,1.0,0,,,1,1,1,0,,0.0,1,0,Armed Assault,,,Private Citizens & Property,Village/City/Town/Suburb,Govt,Village of Dioura,Mali,,,,,,,,,,,Tuareg Guerrillas,Guerrillas,,,,,,0,,,,,,,,,,Firearms,Automatic or Semi-Automatic Rifle,,,,,,,Automatic firearm,1.0,,,0.0,,,1,,,,,1.0,2.0,0.0,,,,,0.0,,,,,,,,,,,,-9,-9,0,
199207060017,1992,7,6,,0,,Mali,Gao,Gao,16.273971,-0.041066,1.0,0,,,1,1,1,0,,0.0,1,0,Armed Assault,,,Private Citizens & Property,Race/Ethnicity Identified,,Tuareg and Arab Residents*,Mali,,,,,,,,,,,Black Malian Group,,,,,,,0,,,,,,,,,,Firearms,Automatic or Semi-Automatic Rifle,,,,,,,Automatic firearm,4.0,,,0.0,,,1,,,,,0.0,,,,,,,0.0,,,,,,,,,,,,0,0,0,
199207070007,1992,7,7,,0,,Mali,Mopti,Dombara,15.074595,-3.25133,1.0,0,,,1,1,1,0,,0.0,1,0,Armed Assault,,,Private Citizens & Property,Village/City/Town/Suburb,Govt,Village of Doumbera,Mali,,,,,,,,,,,Tuareg Guerrillas,Guerrillas,,,,,,0,,,,,,,,,,Firearms,Automatic or Semi-Automatic Rifle,,,,,,,Automatic firearm,0.0,,,0.0,,,1,,,,,0.0,,,,,,,0.0,,,,,,,,,,,,-9,-9,0,
199207100006,1992,7,10,,0,,Niger,Niamey,Niamey,13.516667,2.116667,1.0,0,,,1,1,1,-9,,0.0,1,0,Unknown,,,Private Citizens & Property,Race/Ethnicity Identified,,African-American Female,United States,,,,,,,,,,,Unknown,,,,,,,0,,,,,,,,,,Unknown,,,,,,,,,0.0,,,0.0,,,1,,,,,0.0,,,,,,,0.0,,,,,,,,,,,,-9,-9,1,
199207210014,1992,7,21,,0,,Niger,Tahoua,Kao,15.410785,5.728666,1.0,0,,,1,1,1,0,,0.0,1,0,Armed Assault,,,Private Citizens & Property,Village/City/Town/Suburb,Govt,town of Kao,Niger,,,,,,,,,,,Tuareg Guerrillas,Guerrillas,,,,,,0,,,,,,,,,,Firearms,Automatic or Semi-Automatic Rifle,,,,,,,Automatic firearm,2.0,,,0.0,,,1,,,,,0.0,,,,,,,0.0,,,,,,,,,,,,-9,-9,0,
199207210015,1992,7,21,,0,,Niger,Tillaberi,Ayorou,14.731389,0.919444,1.0,0,,,1,1,1,0,,0.0,1,0,Armed Assault,,,Unknown,,,not stated,Niger,,,,,,,,,,,Tuareg Guerrillas,Guerrillas,,,,,,0,,,,,,,,,,Firearms,Automatic or Semi-Automatic Rifle,,,,,,,Automatic firearm,0.0,,,2.0,,,1,,,,,0.0,,,,,,,0.0,,,,,,,,,,,,-9,-9,0,
199208050004,1992,8,5,,0,,Niger,Agadez,Agadez,16.974169,7.986535,1.0,1,,,1,1,1,0,,0.0,1,0,Assassination,,,Government (General),"Government Personnel (excluding police, military)",Government,Village Chief Sarki Sadi,Niger,,,,,,,,,,,Tuareg extremists,Rebels,,,,,,0,,,,,,,,,,Unknown,,,,,,,,,1.0,,,0.0,,,0,,,,,0.0,,,,,,,0.0,,,,,,,,,,,,-9,-9,0,
199209140011,1992,9,14,,0,,Niger,Tahoua,Tilia,16.132389,4.787796,1.0,1,,,1,1,1,0,,0.0,1,0,Armed Assault,,,Private Citizens & Property,"Public Area (garden, parking lot, garage, beach, public building, camp)",,Desert Camp,Niger,,,,,,,,,,,Tuareg Guerrillas,Guerrillas,,,,,,0,,,,,,,,,,Firearms,Automatic or Semi-Automatic Rifle,,,,,,,Automatic firearm,2.0,,,0.0,,,1,,,,,0.0,,,,,,,0.0,,,,,,,,,,,,-9,-9,0,
199209190009,1992,9,19,,0,,Niger,Agadez,Agadez,16.974169,7.986535,1.0,1,,,1,1,1,0,,0.0,1,0,Armed Assault,,,Transportation,Highway/Road/Toll/Traffic Signal,,2 vehicles Agadez-arlit hightway,Niger,,,,,,,,,,,Air and Azawak Liberation Front,,,,,,,0,,,,,,,,,,Incendiary,,,,,,,,Incendiary,0.0,,,0.0,,,1,3.0,Minor (likely < $1 million),30000.0,,0.0,,,,,,,0.0,,,,,,,,,,,,0,0,0,
199210010003,1992,10,1,,0,,Niger,Agadez,Tabelot,17.571667,8.940556,2.0,0,,,1,1,1,-9,,0.0,1,0,Armed Assault,,,Business,,,Market Vendors Group,Niger,,,,,,,,,,,Tuareg Guerrillas,Guerrillas,,,,,,0,,,,,,,,,,Firearms,Automatic or Semi-Automatic Rifle,,,,,,,Automatic firearm,2.0,,,2.0,,,1,,,,,0.0,,,,,,,0.0,,,,,,,,,,,,-9,-9,0,
199210090004,1992,10,9,,0,,Niger,Tillaberi,Bani Bangou,15.0408,2.705,1.0,0,,,1,1,1,-9,,0.0,1,0,Armed Assault,,,Police,"Police Building (headquarters, station, school)",Police,Headquarters,Niger,,,,,,,,,,,Tuareg extremists,Rebels,,,,,,0,,,,,,,,,,Firearms,Automatic or Semi-Automatic Rifle,,,,,,,Automatic firearm,1.0,,,0.0,,,1,,,,,0.0,,,,,,,0.0,,,,,,,,,,,,-9,-9,0,
199210300006,1992,10,30,,0,,Niger,Zinder,Alamba,13.79161,10.64151,2.0,0,,,1,1,1,-9,,0.0,0,0,Armed Assault,,,Police,Police Security Forces/Officers,Security Force,Unit,Niger,,,,,,,,,,,Tuareg Guerrillas,Guerrillas,,,,,,0,60.0,,,,,,,,,Firearms,Automatic or Semi-Automatic Rifle,,,,,,,Automatic firearm,6.0,,,0.0,,,1,,,,,0.0,,,,,,,0.0,,,,,,,,,,,,-9,-9,0,
199401290001,1994,1,29,,0,,Niger,Agadez,Agadez,16.973889,7.990833,1.0,0,,,1,1,0,1,Insurgency/Guerilla Action,0.0,1,0,Armed Assault,,,Military,Military Transportation/Vehicle (excluding convoys),Unknown,Column of vehicles inder military escort,Niger,,,,,,,,,,,Tuareg extremists,Rebels,,,,,,0,,,,,,,,,,Firearms,Automatic or Semi-Automatic Rifle,,,,,,,Automatic firearm,2.0,,,0.0,,,1,,,,,0.0,,,,,,,0.0,,,,,,,,,,,,-9,-9,0,
199403140002,1994,3,14,,0,,Niger,Unknown,Unknown,,,5.0,0,,,1,1,1,-9,,0.0,1,0,Armed Assault,,,Private Citizens & Property,Vehicles/Transportation,unknown,7 Vehicle Convoy,Niger,,,,,,,,,,,Unknown,,,,,,,0,,,,,,,,,,Firearms,Automatic or Semi-Automatic Rifle,,,,,,,Automatic firearm,1.0,,,4.0,,,1,,,,,0.0,,,,,,,0.0,,,,,,,,,,,,-9,-9,0,
199404040001,1994,4,4,,0,,Niger,Maradi,Maradi,13.491667,7.096389,1.0,0,,,1,1,1,-9,,1.0,1,0,Unknown,,,Private Citizens & Property,Unnamed Civilian/Unspecified,unknown,woman wearing miniskirt,Niger,,,,,,,,,,,Islamist extremists,Militants,,,,,,0,,,,,,,,,,Unknown,,,,,,,,,0.0,,,0.0,,,0,,,,,0.0,,,,,,,0.0,,,,,,,,,,,,-9,-9,0,"199404040001, 199404040002, 199404040003"
199404040002,1994,4,4,,0,,Niger,Maradi,Maradi,13.491667,7.096389,1.0,0,,,1,1,1,-9,,1.0,1,0,Unknown,,,Private Citizens & Property,Unnamed Civilian/Unspecified,unknown,woman wearing miniskirt,Niger,,,,,,,,,,,Islamist extremists,Militants,,,,,,0,,,,,,,,,,Unknown,,,,,,,,,0.0,,,0.0,,,0,,,,,0.0,,,,,,,0.0,,,,,,,,,,,,-9,-9,0,"199404040001, 199404040002, 199404040003"
199404040003,1994,4,4,,0,,Niger,Maradi,Maradi,13.491667,7.096389,1.0,0,,,1,1,1,-9,,1.0,1,0,Unknown,,,Private Citizens & Property,Unnamed Civilian/Unspecified,unknown,woman wearing miniskirt,Niger,,,,,,,,,,,Islamist extremists,Militants,,,,,,0,,,,,,,,,,Unknown,,,,,,,,,0.0,,,0.0,,,0,,,,,0.0,,,,,,,0.0,,,,,,,,,,,,-9,-9,0,"199404040001, 199404040002, 199404040003"
199404110002,1994,4,11,,0,,Niger,Dosso,Koulouna,13.882616,4.030143,1.0,0,,,1,1,1,0,,0.0,1,0,Armed Assault,,,Police,Police Security Forces/Officers,Gendarmerie,Unit,Niger,,,,,,,,,,,Islamist extremists,Militants,,,,,,0,,,,,,,,,,Other,,Melee,Knife or Other Sharp Object,,,,,Bow and arrow; Spears,7.0,,,0.0,,,1,,,,,0.0,,,,,,,0.0,,,,,,,,,,,,-9,-9,0,
199405060001,1994,5,6,,0,,Mali,Bamako,Bamako,12.644684,-8.003768,1.0,0,,,1,1,1,0,,0.0,1,0,Unknown,,,Business,Construction,Caisse Francaise de Development,Offices,France,,,,,,,,,,,Association of Students and Pupils in Mali (AEEM),,,,,,,0,,,,,,,,,,Unknown,,,,,,,,,0.0,,,0.0,,,1,,,,,0.0,,,,,,,0.0,,,,,,,,,,,,0,1,1,
199405160001,1994,5,16,,0,,Niger,Tillaberi,Tiawa,13.5032,1.2872,1.0,0,,,1,1,0,1,Insurgency/Guerilla Action,0.0,1,0,Armed Assault,,,Military,Military Unit/Patrol/Convoy,Military,Unit,Niger,,,,,,,,,,,Popular Front for the Liberation of the Sahara,,,,,,,0,,,,,,,,,,Firearms,Automatic or Semi-Automatic Rifle,,,,,,,Automatic firearm,40.0,,,0.0,,,1,,,,,0.0,,,,,,,0.0,,,,,,,,,,,,0,0,0,
199406120001,1994,6,12,,0,,Mali,Timbuktu,Gourma-Rharous,16.883333,-1.916667,1.0,0,,,1,1,0,1,Insurgency/Guerilla Action,0.0,1,0,Armed Assault,,,Military,Military Unit/Patrol/Convoy,Military,Unit,Mali,,,,,,,,,,,Tuareg extremists,Rebels,,,,,,0,,,,,,,,,,Firearms,Automatic or Semi-Automatic Rifle,,,,,,,Automatic firearm,8.0,,,0.0,,,1,,,,,0.0,,,,,,,0.0,,,,,,,,,,,,-9,-9,0,
199406120002,1994,6,12,,0,,Mali,Timbuktu,Timbuktu,16.77532,-3.008265,1.0,0,,,1,1,0,1,Insurgency/Guerilla Action,0.0,1,0,Armed Assault,,,Military,Military Unit/Patrol/Convoy,Military,Military Convoy,Mali,,,,,,,,,,,Tuareg extremists,Rebels,,,,,,0,,,,,,,,,,Firearms,Automatic or Semi-Automatic Rifle,,,,,,,Automatic firearm,22.0,,,0.0,,,1,,,,,0.0,,,,,,,0.0,,,,,,,,,,,,-9,-9,0,
199407200001,1994,7,20,,0,,Mali,Unknown,Unknown,,,5.0,0,,,1,1,1,0,,0.0,1,0,Unknown,,,Private Citizens & Property,Vehicles/Transportation,Unk,Truck Carrying Market Traders,Mali,,,,,,,,,,,Islamic Arab Front of Azawad (FIAA),,,,,,,0,,,,,,,,,,Unknown,,,,,,,,,25.0,,,0.0,,,1,,,,,0.0,,,,,,,0.0,,,,,,,,,,,,0,0,0,
199407250001,1994,7,25,,0,,Mali,Unknown,Unknown,,,5.0,0,,,1,1,1,0,,0.0,1,0,Unknown,,,Private Citizens & Property,Unnamed Civilian/Unspecified,Village,Villagers,Mali,,,,,,,,,,,Islamic Arab Front of Azawad (FIAA),,,,,,,0,,,,,,,,,,Unknown,,,,,,,,,35.0,,,0.0,,,1,,,,,0.0,,,,,,,0.0,,,,,,,,,,,,0,0,0,
199407300001,1994,7,30,,0,,Mali,Bamako,Bamako,12.648483,-7.99414,1.0,0,,,0,1,1,1,Other Crime Type,0.0,1,0,Unarmed Assault,,,Private Citizens & Property,Race/Ethnicity Identified,Unk,Frenchman of mixed race & school girl of Lebanese descent,France,,,,,,,,,,,Ganda Koi,,,,,,,0,,,,,,,,,,Melee,"Hands, Feet, Fists",,,,,,,Beaten,0.0,,,7.0,,,1,,,,,0.0,,,,,,,0.0,,,,,,,,,,,,0,1,1,
199408130001,1994,8,13,,0,,Niger,Unknown,Unknown,,,5.0,0,,,1,1,1,-9,,0.0,1,0,Unknown,,,Food or Water Supply,Food Supply,Unk,Food Convoy,Nigeria,,,,,,,,,,,Tuareg extremists,Rebels,,,,,,0,,,,,,,,,,Unknown,,,,,,,,,3.0,,,0.0,,,1,,,,,0.0,,,,,,,0.0,,,,,,,,,,,,-9,-9,1,
199408300001,1994,8,30,,0,,Mali,Gao,Unknown,16.906633,1.520862,4.0,0,,,1,1,1,0,,0.0,1,0,Armed Assault,,,Maritime,Civilian Maritime,Unk,Passenger Boat,Mali,,,,,,,,,,,Tuareg extremists,Rebels,,,,,,0,,,,,,,,,,Firearms,Unknown Gun Type,,,,,,,,0.0,,,13.0,,,1,,,,,0.0,,,,,,,0.0,,,,,,,,,,,,-9,-9,0,
199410040001,1994,10,4,,0,,Mali,Timbuktu,Niafounke,15.929691,-3.993222,1.0,1,,,1,1,1,-9,,0.0,1,0,Unknown,,,NGO,International NGO,U/I Swiss Aid Project,Aid Prokect,Switzerland,,,,,,,,,,,Tuareg extremists,Rebels,,,,,,0,,,,,,,,,,Unknown,,,,,,,,,3.0,,,0.0,,,1,,,,,0.0,,,,,,,0.0,,,,,,,,,,,,-9,-9,1,
199410200001,1994,10,20,,0,,Mali,Gao,Ansongo,15.666816,0.508533,1.0,0,,,1,1,1,-9,,0.0,1,0,Unknown,,,Private Citizens & Property,Unnamed Civilian/Unspecified,Town,Residents/Town,Mali,,,,,,,,,,,Tuareg extremists,Rebels,,,,,,0,,,,,,,,,,Unknown,,,,,,,,,3.0,,,4.0,,,1,,,,,0.0,,,,,,,0.0,,,,,,,,,,,,-9,-9,0,
199410220001,1994,10,22,,0,,Mali,Gao,Gao,16.273971,-0.041066,1.0,0,,,1,1,1,0,,0.0,1,0,Unknown,,,Private Citizens & Property,Village/City/Town/Suburb,Town,Town/Residents,Mali,,,,,,,,,,,Tuareg extremists,Rebels,,,,,,0,,,,,,,,,,Unknown,,,,,,,,,15.0,,,20.0,,,1,,,,,0.0,,,,,,,0.0,,,,,,,,,,,,-9,-9,0,
199410240001,1994,10,24,,0,,Mali,Gao,Gao,16.273971,-0.041066,1.0,0,,,1,0,1,1,Intra/Inter-group Conflict,0.0,1,0,Unknown,,,Unknown,,Unk,Tuaregs,Mali,,,,,,,,,,,Black African Vigilantes,,,,,,,0,,,,,,,,,,Unknown,,,,,,,,,11.0,,,0.0,,,1,,,,,0.0,,,,,,,0.0,,,,,,,,,,,,-9,-9,0,
199411170001,1994,11,17,,0,,Mali,Unknown,Unknown,,,5.0,1,,,1,1,0,1,Insurgency/Guerilla Action,0.0,1,0,Unknown,,,Military,Military Unit/Patrol/Convoy,,Military convoy,Mali,,,,,,,,,,,Tuareg extremists,Rebels,,,,,,0,,,,,,,,,,Unknown,,,,,,,,,2.0,,,1.0,,,1,,,,,0.0,,,,,,,0.0,,,,,,,,,,,,-9,-9,0,
199411200007,1994,11,20,,0,,Mali,Gao,Gao,16.273971,-0.041066,1.0,0,,,1,1,1,-9,,0.0,1,0,Unknown,,,Private Citizens & Property,Village/City/Town/Suburb,,Village,Mali,,,,,,,,,,,Tuareg extremists,Rebels,,,,,,0,,,,,,,,,,Unknown,,,,,,,,,7.0,,,1.0,,,1,,,,,0.0,,,,,,,0.0,,,,,,,,,,,,-9,-9,0,
199501230006,1995,1,23,,0,,Mali,Timbuktu,Timbuktu,16.77532,-3.008265,1.0,0,,,1,1,1,0,,0.0,1,0,Bombing/Explosion,,,Private Citizens & Property,Village/City/Town/Suburb,unk,Mali Town,Mali,,,,,,,,,,,Tuareg extremists,Rebels,,,,,,0,,,,,,,,,,Explosives,"Projectile (rockets, mortars, RPGs, etc.)",,,,,,,Mortar,2.0,,,6.0,,,1,,,,,0.0,,,,,,,0.0,,,,,,,,,,,,-9,-9,0,
199503110014,1995,3,11,,0,,Niger,Diffa,Bosso,13.69661,13.31583,2.0,0,,,1,1,1,0,,0.0,0,0,Unknown,,,Private Citizens & Property,Village/City/Town/Suburb,,Niger Village (N/I),Niger,,,,,,,,,,,Democratic Front for Renewal (FDR),,,,,,,0,,,,,,,,,,Unknown,,,,,,,,,17.0,,,0.0,,,1,,,,,0.0,,,,,,,0.0,,,,,,,,,,,,0,0,0,
199512150011,1995,12,15,,0,,Niger,Zinder,Chiriaou,12.88989,8.83927,2.0,0,,,1,1,1,0,,0.0,1,0,Assassination,,,Government (General),Politician or Political Party Movement/Meeting/Rally,,Tuareg Leader,Niger,Private Citizens & Property,Race/Ethnicity Identified,,"Frenchman, possibly an aid worker",France,,,,,,Unknown,,,,,,,0,,,,,,,,,,Explosives,Unknown Explosive Type,,,,,,,Explosive,5.0,,,0.0,,,1,,,,,0.0,,,,,,,0.0,,,,,,,,,,,,-9,-9,1,
199606060002,1996,6,6,,0,,Niger,Diffa,Diffa,13.31489,12.6047,1.0,0,,,1,1,1,0,,0.0,1,0,Unknown,,,Transportation,Highway/Road/Toll/Traffic Signal,,Highway Traffic,Niger,,,,,,,,,,,Democratic Front for Renewal (FDR),Democratic Revival Front,,,,,,0,,,,,,,,,,Unknown,,,,,,,,,2.0,,,8.0,,,1,,,,,0.0,,,,,,,0.0,,,,,,,,,,,,0,0,0,
199704020001,1997,4,2,,0,,Mali,Timbuktu,Ber,16.840216,-2.523311,1.0,0,,,1,1,1,-9,,0.0,1,0,Unknown,,,Private Citizens & Property,Village/City/Town/Suburb,,Villiage,Mali,,,,,,,,,,,Tuareg extremists,,,,,,,0,,,,,,,,,,Unknown,,,,,,,,,0.0,,,2.0,,,1,,,,,0.0,,,,,,,0.0,,,,,,,,,,,,-9,-9,0,
199704040001,1997,4,4,,0,,Mali,Timbuktu,Gourma-Rharous,16.883333,-1.916667,1.0,0,,,1,1,1,-9,,0.0,1,0,Unknown,,,Tourists,Tour Bus/Van,,Tourists,France,,,,,,,,,,,Tuareg extremists,Rebels,,,,,,0,8.0,,,,,,,,,Unknown,,,,,,,,,0.0,,,1.0,,,1,,,,,0.0,,,,,,,0.0,,,,,,,,,,,,-9,-9,1,
199705130001,1997,5,13,,0,,Mali,Bamako,Bamako,12.648483,-7.99414,1.0,0,,,1,1,1,-9,,0.0,1,0,Facility/Infrastructure Attack,,,Government (General),Politician or Political Party Movement/Meeting/Rally,,Opposition Party HQ/Mountaga Tall,Mali,,,,,,,,,,,Unknown,,,,,,,0,,,,,,,,,,Incendiary,Gasoline or Alcohol,,,,,,,Gasoline bombs,0.0,,,0.0,,,1,,,,,0.0,,,,,,,0.0,,,,,,,,,,,,-9,-9,0,
199709200001,1997,9,20,,0,,Niger,Agadez,Madama,21.93545,13.626142,2.0,0,,,1,1,0,1,Insurgency/Guerilla Action,0.0,1,0,Bombing/Explosion,,,Military,Military Barracks/Base/Headquarters/Checkpost,Government,Military Post,Niger,,,,,,,,,,,Saharan Revolutionary Armed Front (FARS),,,,,,,0,,,,,,,,,,Explosives,"Projectile (rockets, mortars, RPGs, etc.)",,,,,,,Mortar,0.0,,,5.0,,,1,,,,,0.0,,,,,,,0.0,,,,,,,,,,,,0,0,0,
199709200002,1997,9,20,,0,,Niger,Agadez,Madama,21.93545,13.626142,2.0,0,,,1,1,1,0,,0.0,1,0,Bombing/Explosion,,,Private Citizens & Property,Vehicles/Transportation,,Truck,Niger,,,,,,,,,,,Saharan Revolutionary Armed Front (FARS),,,,,,,0,,,,,,,,,,Explosives,Landmine,,,,,,,Mine,5.0,,,0.0,,,1,,,,,0.0,,,,,,,0.0,,,,,,,,,,,,0,0,0,
199710190001,1997,10,19,,0,,Niger,Agadez,Aderbissinat,15.620232,7.894257,1.0,0,,,1,1,1,0,,0.0,1,0,Armed Assault,,,Private Citizens & Property,Village/City/Town/Suburb,,Town,Niger,,,,,,,,,,,Saharan Revolutionary Armed Front (FARS),,,,,,,0,100.0,,,,,,,,,Firearms,Unknown Gun Type,,,,,,,Firearm,27.0,,,0.0,,,1,,,,,0.0,,,,,,,0.0,,,,,,,,,,,,0,0,0,
199904090003,1999,4,9,,0,,Niger,Niamey,Niamey,13.516667,2.116667,1.0,0,,"04/09/1999: President Ibrahim Bare Mainassara of Niger was assassinated at the Niamey Military Airport, while he was headed toward his helicopter. Mainassara was possibly killed because he was refusing demands for his resignation. The perpetrators of this incident were unknown.",1,1,1,0,,0.0,1,0,Assassination,,,Government (General),Head of State,President of Niger,President Ibrahim Bare Mainassara,Niger,,,,,,,,,,,Unknown,,,,,,The assassination was possible due to Mainassara's refusal to resign from the presidency and the difficult elections in February 1999.,0,,0.0,0.0,,,,,,,Firearms,Unknown Gun Type,Explosives,Grenade,,,,,,4.0,0.0,0.0,,0.0,0.0,0,,,,,0.0,,,,,,,,,,,,,,,,"“Niger--Bare's Refusal To Resign Said Reason for Killing,” Agence France Presse (World Service), April 10, 1999.","Cherif Ouazani, “Chronology of Bare Assassination Recounted,” Jeune Afrique, April 26, 1999.",,-9,-9,0,
199910060003,1999,10,6,,0,,Niger,Maradi,Maradi,13.491667,7.096389,1.0,0,,"10/06/1999: Approximately 200 fundamentalists attacked the local radio station in Maradi, Niger. The perpetrators wanted to lynch a spiritual leader who was enlightening people on a convention ratified the previous month on the elimination of all forms of discrimination against women in Niger. The police intervened in the attack, which caused significant damage, but no injuries.",1,1,1,0,,0.0,1,0,Unarmed Assault,,,Journalists & Media,Radio Journalist/Staff/Facility,Radio Station,A local unnamed radio station in Maradi,Niger,,,,,,,,,,,Unknown,,,,,,The perpetrators wanted to lynch a spiritual leader who was promoting a convention on elimination of all forms of discrimination against women in Niger.,0,200.0,,0.0,,,,,,,Melee,Rope or Other Strangling Device,,,,,,,,0.0,0.0,0.0,0.0,0.0,0.0,1,4.0,Unknown,,,0.0,,,,,,,,,,,,,,,,"""Niger--Fundamentalists Attack Radio Station in Maradi,” Radio France Internationale, October 6, 1999.",,,-9,-9,0,
200507050010,2005,7,5,,0,,Mali,Unknown,Unknown,,,5.0,0,,"07/05/2005: An Algerian military helicopter was shot down over Mali by an Islamic extremist group, but there were no reports of casualties or damage. The Salafist Group for Preaching and Combat (GSPC) was believed to have been responsible for the attack.",1,1,0,1,Insurgency/Guerilla Action,0.0,1,0,Armed Assault,,,Military,Military Aircraft,Algerian Military,Algerian Military Helicopter,Algeria,,,,,,,,,,,Salafist Group for Preaching and Fighting (GSPC),,,,,,Unknown,0,,0.0,0.0,,,,,,,Firearms,Unknown Gun Type,,,,,,,,,0.0,0.0,,0.0,0.0,1,4.0,Unknown,,A helicopter was damaged in this attack.,0.0,,,,,,,,,,,,,,,,"“GSPC Shoots Down Algerian Chopper in Mali,” Panafrican News Agency Daily Newswire, July 5, 2005.",,,1,0,1,
200705120003,2007,5,12,,0,,Mali,Kidal,Tin Zaouatine,19.936789,2.916669,1.0,0,,"05/12/2007: Ten people were killed in an attack in Tinzaouatene, northeast Mali, by former Tuareg rebel Ibrahima Bahanga. The attack occurred in the city of Tinzaouatene. Eight rebels were killed in the attack. The weapons used were not described in the report. A claim of responsibility was received, however the details of the claim were not reported.",1,1,0,1,Insurgency/Guerilla Action,0.0,1,0,Armed Assault,,,Military,Military Barracks/Base/Headquarters/Checkpost,Security post,Unknown,Mali,,,,,,,,,,,Tuareg Guerrillas,,,,,,Unknown,0,,0.0,0.0,Personal claim,,,,,-9.0,Firearms,Automatic or Semi-Automatic Rifle,,,,,,,,10.0,0.0,8.0,0.0,0.0,0.0,1,4.0,Unknown,,,0.0,,,,,,,,,,,,,,,,"""At least ten killed in rebel attack on northern town,"" Paris AFP, May 12, 2007",,,-9,-9,0,
200706220002,2007,6,22,,1,,Niger,Agadez,Agadez,16.973889,7.990833,1.0,0,,"06/22/2007: Armed assailants attacked a Niger Army base in Agadez, Niger, killing 15 soldiers, wounding 43, and kidnapping 72 others. The base also sustained damages. Thirty hostages were released on June 28, 2007. On or about July 11, 2007, the assailants released three injured hostages to the Red Cross, six more hostages were released on August 4, 2007. The Niger People's Movement for Justice (MNJ) claimed responsability.",1,1,1,0,,0.0,1,0,Hostage Taking (Kidnapping),Facility/Infrastructure Attack,,Military,Military Barracks/Base/Headquarters/Checkpost,Niger Army base,Soldiers,Niger,,,,,,,,,,,Movement of Niger People for Justice (MNJ),,,,,,Unknown,0,,0.0,1.0,Unknown,,,,,-9.0,Firearms,Unknown Gun Type,,,,,,,,15.0,0.0,0.0,43.0,0.0,0.0,1,4.0,Unknown,,The Niger Army base sustained an undetermined amount of damage.,1.0,72.0,0.0,,43.0,Unknown,Unknown,0.0,,,,,,Combination,39.0,Thirty hostages were released after six days.  Three injured hostages were released the Red Cross after 19 day and six more hostages were released after 43 days.,"National Counter Terrorism Center, 2007 Report on Terrorism",,,0,0,0,
200707060020,2007,7,6,,1,2007-07-15,Niger,Agadez,Niamey,13.516667,2.116667,1.0,0,1000 km north,"07/06/2007: A Chinese executive, Zhang Guohua, was kidnapped in Niger's north region of Agadez by Tuareg tribesmen. The Movement of Niger People for Justice claimed responsibility for the attack.",1,1,1,0,,0.0,1,0,Hostage Taking (Kidnapping),,,Business,Mining,Societe Des Mines D'Agelik,"Zhang Guohua, deputy general manager",China,,,,,,,,,,,Movement of Niger People for Justice (MNJ),,,,,,"It said that the kidnapping was in response to the company's policy of employing people from the capital rather than locals, according to the Chinese embassy.",0,,0.0,1.0,Unknown,,,,,-9.0,Unknown,,,,,,,,,0.0,0.0,0.0,0.0,0.0,0.0,0,,,,,1.0,1.0,0.0,,8.0,,,0.0,,,,,,Hostage(s) released by perpetrators,1.0,,"“No death threat to Chinese hostage in Niger,” Xinhua General News Service, July 7, 2007.","“Chinese hostage freed in Niger,” Agence France Presse, July 15, 2007.",,0,1,1,
200708200026,2007,8,20,,0,,Niger,Agadez,Agadez,16.974135,7.986678,1.0,0,,"08/20/2007: Four policemen were killed and three were injured in a landmine explosion in Agadez, Niger, by suspected Tuareg rebels.",1,1,1,0,,0.0,1,0,Bombing/Explosion,,,Police,Police Security Forces/Officers,Nigerien Police Force,Police,Niger,,,,,,,,,,,Tuareg extremists,,,,,,Unknown,0,,0.0,0.0,,,,,,,Explosives,Landmine,,,,,,,,4.0,0.0,0.0,3.0,0.0,0.0,0,,,,,0.0,,,,,,,,,,,,,,,,"“Niger: Landmine Kills Four Policemen in Agadez” AFP.  August 20, 2007.",,,-9,-9,0,
200708210011,2007,8,21,,0,,Niger,Agadez,Agadez,16.974169,7.986535,1.0,1,,"08/21/2007: Near Agadez, Niger, assailants wielding unspecified firearms attacked a military convoy, killing 17 soldiers, and wounding several others. Seven vehicles were destroyed. The Niger People's Movement for Justice (MNJ) claimed responsibility.",1,1,0,1,Insurgency/Guerilla Action,0.0,1,0,Armed Assault,,,Military,Military Unit/Patrol/Convoy,Military supply convoy,Unknown,Niger,,,,,,,,,,,Movement of Niger People for Justice (MNJ),,,,,,Unknown,0,,0.0,1.0,Unknown,,,,,-9.0,Firearms,Unknown Gun Type,,,,,,,,17.0,0.0,0.0,3.0,0.0,0.0,1,3.0,Minor (likely < $1 million),,Seven vehicles were destroyed  in the attack.,0.0,,,,,,,,,,,,,,,,"National Counter Terrorism Center, 2007 Report on Terrorism",,,0,0,0,
200708240026,2007,8,24,,0,,Niger,Agadez,Agadez,16.973889,7.990833,1.0,0,,"08/24/2007: Suspected militants from the Tuareg group set a bus on fire in Agadez, Niger. No casualties were reported.",1,1,1,0,,0.0,1,0,Facility/Infrastructure Attack,,,Transportation,Bus (excluding tourists),Unknown,Unknown,Nigeria,,,,,,,,,,,Tuareg extremists,,,,,,Unknown,0,,0.0,0.0,,,,,,,Incendiary,Gasoline or Alcohol,,,,,,,,0.0,0.0,0.0,0.0,0.0,0.0,1,3.0,Minor (likely < $1 million),,,0.0,,,,,,,,,,,,,,,,"“Suspected Tuareg rebels set bus on fire in northern Niger” Radio France Internationale.  August 24, 2007.",,,-9,-9,1,
200708270029,2007,8,27,,1,,Mali,Timbuktu,Tedierert,16.38194,-1.26972,1.0,0,,"08/27/2007: Suspected Tuareg rebels kidnapped 15 soldiers in Tedjerete, Mali. The outcome of this incident was unknown.",1,1,1,0,,0.0,1,0,Hostage Taking (Kidnapping),,,Military,"Military Personnel (soldiers, troops, officers, forces)",Mali Military,soldiers,Mali,,,,,,,,,,,Tuareg extremists,,,,,,Unknown,0,12.0,0.0,0.0,,,,,,,Firearms,Unknown Gun Type,,,,,,,,0.0,0.0,0.0,,0.0,0.0,0,,,,,1.0,15.0,0.0,,-99.0,,,0.0,,,,,,Unknown,-99.0,,"“Mali: Tuareg Rebels Kidnap 15 Soldiers in East” AFP.  August 27, 2007.",,,-9,-9,0,
200708280030,2007,8,28,,0,,Mali,Kidal,Abeibara,19.107615,1.748384,1.0,0,,"08/28/2007: A Mali military convoy was ambushed in Abebara, Mali. Two trucks were stolen. The perpetrators, casualties, and number of possible kidnapping victims were unknown for this incident.",1,1,1,0,,0.0,1,0,Armed Assault,,,Military,"Military Personnel (soldiers, troops, officers, forces)",Mali Military,soldiers,Mali,,,,,,,,,,,Unknown,,,,,,Unknown,0,,0.0,0.0,,,,,,,Firearms,Unknown Gun Type,,,,,,,,,0.0,0.0,,0.0,0.0,1,3.0,Minor (likely < $1 million),,Two trucks were taken in this attack.,-9.0,,,,,,,,,,,,,,,The perpetrators were suspected to have kidnapped several soldiers but the number was unknown.,"“Milan army convoy attacked in north” Radio France Internationale.  August 28, 2007.",,,-9,-9,0,
200708310020,2007,8,31,,0,,Mali,Unknown,Tinzawatin,,,5.0,0,,"08/31/2007: A mine explosion in Tinzawaten, Mali killed ten people in injured several others. The perpetrator(s) were unidentified and there were no media accounts of any group claiming responsibility for the attack.",1,1,1,0,,0.0,1,0,Bombing/Explosion,,,Private Citizens & Property,Vehicles/Transportation,Unknown,vehicle carrying entertainers,Mali,,,,,,,,,,,Unknown,,,,,,Unknown,0,,0.0,0.0,,,,,,,Explosives,Landmine,,,,,,,,10.0,0.0,0.0,,0.0,0.0,1,3.0,Minor (likely < $1 million),,,0.0,,,,,,,,,,,,,,,,"“Mine explodes in northern Mali killing 10, injuring several others” OSC Summary.  August 31, 2007.",,,-9,-9,0,
200709120004,2007,9,12,,0,,Mali,Kidal,Tin Zaouatine,19.936789,2.916669,1.0,0,,"09/12/2007: Rebels led by Ibrahima Bahanga fired small arms at a U.S. Air Force c-130 Hercules transport. The plane was carrying  food packages to Malian troops battling insurgents in Ti-n-Zaoutene, Algeria. Minimal damage was reported and no group claimed responsibility.",1,1,1,0,,0.0,1,0,Armed Assault,,,Food or Water Supply,Food Supply,Unknown,Unknown,Multinational,,,,,,,,,,,Unknown,,,,,,Unknown,0,,0.0,0.0,,,,,,,Firearms,Unknown Gun Type,,,,,,,,0.0,0.0,0.0,0.0,0.0,0.0,1,3.0,Minor (likely < $1 million),,,0.0,,,,,,,,,,,,,,,,"Terrorism, 2005-2007: A Chronology  (Westport, CT: Praeger Security International)",,,-9,-9,1,
200711090010,2007,11,9,,0,,Niger,Agadez,Unknown,16.974169,7.986535,4.0,0,between the cities of Agadez and Arlit.,"11/09/2007: Soldiers in Niger were attacked by members of the Movement of the People of Niger for Justice (MNJ). Three of the soldiers were wounded and four were missing after the civilian convoy that they were escorting was attacked. The attack occurred on the road between Agadez and Arlit, Niger.",1,1,1,0,,0.0,1,0,Hostage Taking (Kidnapping),Armed Assault,,Military,"Military Personnel (soldiers, troops, officers, forces)",Nigern Armed Forces,soldiers,Niger,,,,,,,,,,,Movement of Niger People for Justice (MNJ),,,,,,"The group was made up of Tuareg rebels who are fighting for greater inclusion in the army, civil service, and mining sector.",0,,0.0,1.0,Unknown,,,,,0.0,Firearms,Unknown Gun Type,,,,,,,,0.0,0.0,0.0,3.0,0.0,0.0,-9,,,,,1.0,4.0,,,-99.0,,,0.0,,,,,,Unknown,,,"""Tuareg raid kills four Niger soldiers in north,"" Agence France Presse, November 10, 2007.",,,0,0,0,
200712150019,2007,12,15,,0,,Niger,Agadez,Iferouane,19.0625,8.42,1.0,0,,12/15/2007: Rebels attacked a military convoy in Niger killing 30 wounding and injuring scores.,1,1,1,0,,0.0,1,0,Armed Assault,,,Military,"Military Personnel (soldiers, troops, officers, forces)",Nigern Military,soldiers,Niger,,,,,,,,,,,Unknown,,,,,,Unknown,0,,0.0,0.0,,,,,,,Firearms,Unknown Gun Type,,,,,,,,30.0,0.0,0.0,,0.0,0.0,1,3.0,Minor (likely < $1 million),,,0.0,,,,,,,,,,,,,,,,"“Niger: MNJ Rebels Attack Military Convoy, Government Says Three Soldiers Dead” MISNA. December 05, 2007.",,,-9,-9,0,
200801080012,2008,1,8,,0,,Niger,Niamey,Niamey,13.516667,2.116667,1.0,0,,"01/08/2008: The director of a radio station called Radio et Musique (R&M) hit a land mine with his car in Niamey, Niger at around 10:30 pm (2130 GMT) . The victim's name was Abdou Mahaman who died from critical injury later at a hospital while a female passenger suffered minor injuries. The persons who planted the mine are not known while Mahaman was not believed to be a specific target.",1,1,1,0,,0.0,1,0,Bombing/Explosion,,,Journalists & Media,Radio Journalist/Staff/Facility,Radio station,Journalist,Niger,,,,,,,,,,,Unknown,,,,,,Unknown,0,,0.0,0.0,,,,,,,Explosives,Landmine,,,,,,,,1.0,0.0,0.0,0.0,0.0,0.0,1,3.0,Minor (likely < $1 million),,The vehicle was damaged.,0.0,,,,,,,,,,,,,,,,"""Niger journalist dies in mine blast,"" Agence France Presse, January 9, 2008.","""VOA NEWS: NIGERIANS SEARCH FOR LANDMINES IN CAPITAL AFTER EXPLOSION KILLS ONE,"" US Fed News, January 9, 2008.","""Niger; Media Director Killed by Landmine,"" Media Foundation for West Africa, January 9, 2008.",-9,-9,0,
200801210008,2008,1,21,,1,,Niger,Tanout Department,Tanout,14.97089,8.88786,1.0,0,"In Tanout, 150 kilometers from Zinder, in the southeast  of the country and southen edge of the Agadez region","1/21/2008: Members of Movement of Niger People for Justice (MNJ)attacked the town of Tanout, in Tanout department, Niger. The assailants raided the town in the evening, killing three people, injuring five, and abducting seven; one of the abductees was the prefect or local senior government official. The assailants stated that they were retaliating against the prefect; they stated that the prefect was getting local official to report on residents who were supporting the MNJ. The outcome of the abduction is unknown.",1,1,1,0,,0.0,1,0,Hostage Taking (Kidnapping),Armed Assault,Facility/Infrastructure Attack,Government (General),"Government Personnel (excluding police, military)",Niger prefect,A prefect or senior official in Tanout,Niger,Private Citizens & Property,Unnamed Civilian/Unspecified,Civilians,Civilians in the vicinity of Tanout,Niger,Telecommunication,,Telecommunication,Telecommunication installations in Tanout,Niger,Movement of Niger People for Justice (MNJ),,,,,,The assailants stated that they were retaliating against the prefect; they believed he was getting local officials to report on residents who were supporting the rebels.,0,-99.0,0.0,1.0,"Posted to website, blog, etc.",,,,,0.0,Firearms,Automatic or Semi-Automatic Rifle,,,,,,,"""Heavy machine guns""",3.0,0.0,0.0,5.0,0.0,0.0,1,4.0,Unknown,,"Vehicles were destroyed, as were power and telecommunication installations",1.0,7.0,0.0,-99.0,-99.0,,,-9.0,,,,,,Unknown,-99.0,,"Abdoulaye Massalatchi, "" Niger rebels attack town, abduct senior officials,"" Reuters, January 22, 2008.","""Niger: Rebels raid town in south east,"" IRIN, January 22, 2008.",,0,0,0,
200801250008,2008,1,25,,1,,Niger,Agadez Department,Arlit,18.7325,7.368056,1.0,1,"Outside of Arlit on the main road leading north to the border, 750 miles from Niamey","1/25/2008: Suspected Tuareg rebels kidnapped five civilians near Arlit, Agadez department, Niger. Officials believe that the intended target of the attack was the deputy chairman of the National Commission for Human Rights who was supposed to be in the area but did not appear. The outcome of the abduction is unknown.",1,1,1,0,,0.0,1,0,Hostage Taking (Kidnapping),,,Private Citizens & Property,Unnamed Civilian/Unspecified,Civilians,Civilians in the vicinity of Arlit,Niger,Government (General),Politician or Political Party Movement/Meeting/Rally,Niger government,The deputy chairman of the National Commission for Human Rights,Niger,,,,,,Tuareg extremists,,,,,,"Specific motive is unknown; however, sources believe that the assailants were targeting a government official and took civilians instead.  Officials believe it was a ""planned settling of scores"".",0,-99.0,0.0,0.0,,,,,,,Unknown,,,,,,,,No specific mention of weapons was made,0.0,0.0,0.0,0.0,0.0,0.0,0,,,,,1.0,5.0,0.0,-99.0,-99.0,,,-9.0,,,,,,Unknown,-99.0,,"Abdoulaye Massalatchi, ""Suspected rebels kidnap 5 civilians - Niger govt,"" Reuters, January 28, 2008.",,,-9,-9,0,
200803170004,2008,3,17,,0,,Niger,Niamey Capital District,Bani Bangou,15.0408,2.705,1.0,0,,"03/17/2008: Tuareg rebels belonging to the Movement of Niger People for Justice attacked a government outpost in Banibangou, 125 miles north of the capital Niamey of Niger, killing two security force members and kidnapping a third. An Internet statement posted by the rebels claimed that they seized a police officer, two military vehicles and ""all weapons"" stored at a nearby military post. Their reasoning is behind their feelings of being marginalized by the government.",1,1,1,0,,0.0,1,0,Hostage Taking (Kidnapping),,,Police,"Police Building (headquarters, station, school)",Niger Security Forces,A Government Post manned by Police,Niger,,,,,,,,,,,Movement of Niger People for Justice (MNJ),,,,,,Unknown,0,,0.0,1.0,"Posted to website, blog, etc.",,,,,-9.0,Unknown,,,,,,,,,2.0,0.0,,0.0,0.0,,0,,,,,1.0,1.0,0.0,-99.0,-99.0,Mali,Unknown,-9.0,,,,,,Unknown,-99.0,,"""Tuareg rebels kill two in Niger attack: ministry,” Agence France Presse, March 18, 2008.","Mamane Dalatou, “2 killed in Tuareg attack in Niger ,” Associated Press Worldstream, March 17, 2008.",,0,0,0,
200803200006,2008,3,20,,0,,Mali,Kidal,Adrar des Ifoghas,18.447574,1.408866,2.0,1,at Adrar des Ifoghas Mountains,03/20/2008: Three soldiers were killed when their mine-clearing truck hit a landmine planted by suspected Tuareg rebels in the Adrar des Iforas region of Mali.,1,1,1,0,,0.0,1,0,Bombing/Explosion,,,Military,Military Transportation/Vehicle (excluding convoys),Malian Military,A mine-clearing truck,Mali,,,,,,,,,,,Tuareg extremists,,,,,,Unknown,0,,0.0,0.0,,,,,,,Explosives,Landmine,,,,,,,,3.0,0.0,0.0,0.0,0.0,0.0,-9,,,,,0.0,,,,,,,,,,,,,,,,"""Mine blast kills five in northern Mali,” Agence France Presse, March 21, 2008.",,,-9,-9,0,
200803210002,2008,3,21,,0,,Mali,Kidal,Tin Zaouatine,19.936789,2.916669,1.0,0,,03/21/2008: Five civilians including a child were killed after their vehicle ran over a landmine in Mali's northern desert.,1,1,1,0,,0.0,1,0,Bombing/Explosion,,,Private Citizens & Property,Unnamed Civilian/Unspecified,Civilians,,Mali,,,,,,,,,,,Unknown,,,,,,Unknown,0,,0.0,0.0,,,,,,,Explosives,Landmine,,,,,,,,5.0,0.0,0.0,0.0,0.0,0.0,-9,,,,,0.0,,,,,,,,,,,,,,,,"""Mine blast kills five in northern Mali,” Agence France Presse, March 21, 2008.",,,-9,-9,0,
200803220010,2008,3,20,,1,,Mali,Kidal,Abeibara,19.107615,1.748384,1.0,1,Near the town of Abeïbara,"3/20/2008: Tuareg rebels ambushed a military convoy near the town of Abeïbara, Abeïbara cercle, Mali. The assailants kidnapped at least 20 soldiers and stole several vehicles, including two armored personnel carriers. The outcome of the kidnapping is unknown.",1,1,0,1,Insurgency/Guerilla Action,0.0,1,0,Hostage Taking (Kidnapping),,,Military,Military Unit/Patrol/Convoy,Mali military,A military convoy near Abeibara,Mali,,,,,,,,,,,Tuareg extremists,,,,,,"Specific motive is unknown; however, the Tuareg rebels stole several vehicles.",0,-99.0,0.0,0.0,,,,,,,Unknown,,,,,,,,No specific mention of weapons was made,0.0,0.0,0.0,,0.0,,0,,,,,1.0,20.0,0.0,-99.0,-99.0,,,0.0,,,,,,Unknown,-99.0,Sources do not mention is anyone was injured or killed.  The outcome of the kidnapping is unknown,"""Tuareg rebels attack Mali convoy,"" BBC, March 22, 2008.",,,-9,-9,0,
200805060008,2008,5,6,,0,,Mali,Kidal,Aguelhoc,19.464848,0.856393,1.0,0,"at a Malian army position in the town of Aguel’hoc, Kidal, Mali.","05/06/2008: On Tuesday, Tuareg rebels attacked attacked a Malian army position in the town of Aguel’hoc, Kidal, Mali. Troops returned fire on the rebels, no casualties were reported on either side.",1,1,0,1,Insurgency/Guerilla Action,0.0,0,0,Armed Assault,,,Military,Military Barracks/Base/Headquarters/Checkpost,Malian Army,A Malian army position,Mali,,,,,,,,,,,Unknown,,,,,,The specific motive for the attack is unknown.,0,-99.0,0.0,0.0,,,,,,,Firearms,Unknown Gun Type,,,,,,,Unknown firearms were used in the attack.,0.0,0.0,0.0,0.0,0.0,0.0,0,,,,,0.0,,,,,,,,,,,,,,,,"World News Connection, ""Mali Sends in Army Reinforcements After Tuareg Attacks,"" Agence France Presse, May 6, 2008.","Lexis Nexis, ""Mali Sends in Army Reinforcements After Tuareg Attacks,"" Agence France Presse, May 6, 2008.",,-9,-9,0,
200805060016,2008,5,6,,0,,Mali,Segou,Diabaly,14.687669,-6.016563,1.0,0,"The attack took place in Diabaly, Segou, Mali, Africa at a Military base.","05/06/2008: On Tuesday morning in Diabaly, Segou, Mali, Tuareg rebels attacked a military base, leaving one person dead and stealing an assortment of supplies. No damage was reported.",1,1,1,0,,0.0,1,0,Armed Assault,,,Military,Military Barracks/Base/Headquarters/Checkpost,Mali Army.,"The target was an army base in Djiabally, Segou region, Mali.",Asian,,,,,,,,,,,Tuareg extremists,,,,,,The specific motive for the attack is unknown.,0,-99.0,0.0,0.0,,,,,,,Firearms,Unknown Gun Type,,,,,,,Unknown firearms were used in the attack.,1.0,0.0,0.0,0.0,0.0,0.0,0,,,,,0.0,,,,,,,,,,,,,,,,"BBC Monitoring Africa, ""Tuareg Rebels Claims to Have Seized Army Base in Central Mali"", LexisNexis Academic, BBC Monitoring Africa, May 8, 2008.","Nana Adu Ampofo, World Markets Research Centre, ""Insurgent Group Attacks Army Outpost in Mali"", Globalinsight.com, May 7, 2008.","Agence France Presse, ""Mali Sends in Army Reinforcements After Tuareg Attacks"", Agence France Presse, May 6, 2008.",-9,-9,1,
200805150040,2008,5,15,,1,,Niger,Zinder,Tanout,14.97089,8.88786,1.0,0,"The attack took place in Tanout, Zinder, Niger, Africa.","05/15/2008: On Thursday in Tanout, Zinder, Niger, assailants kidnapped a Member of Parliament (MP), his deputy, his son, and one civilian. The Niger People's Movement for Justice (MNJ) claimed responsibility and no damage was reported.",1,1,1,0,,0.0,1,0,Hostage Taking (Kidnapping),,,Government (General),"Government Personnel (excluding police, military)",African Government.,"A member of Parliament, his deputy, and his son.",Asian,Private Citizens & Property,Race/Ethnicity Identified,,A Nigerien civilian.,Asian,,,,,,Movement of Niger People for Justice (MNJ),,,,,,The specific motive for the attack is unknown.,0,-99.0,0.0,1.0,Unknown,,,,,,Unknown,,,,,,,,It is unknown if weapons were used in the attack.,0.0,0.0,0.0,0.0,0.0,0.0,0,,,,,1.0,4.0,0.0,,-99.0,,,0.0,,,,,,Unknown,-99.0,,"National Counterterroism Center, ""Two Government Officials, One Child, One Civilian Kidnapped by MNJ in Tanout, Zinder, Niger"", Worldwide Incidents Tracking System, February 8, 2010.","Reuters: Alertnet.org, ""Niger Tuareg Rebels Free Abducted Rights Official"", Reuters, May 25, 2008.",,0,1,1,
200805220008,2008,5,22,,0,,Mali,Kidal,Abeibara,19.107615,1.748384,1.0,0,,"05/22/2008: On Thursday, 15 Malian soldiers and 17 Tuareg rebels were killed and 31 others were injured during an attack on an army post in Abeibara, Kidal, Mali. Unknown firearms were used in the attack. A Malian army post was targeted.",1,1,0,1,Insurgency/Guerilla Action,0.0,1,0,Armed Assault,,,Military,Military Barracks/Base/Headquarters/Checkpost,Malian Army,A Malian army post,Mali,,,,,,,,,,,Unknown,,,,,,The specific motive for the attack is unknown.,0,-99.0,0.0,0.0,,,,,,,Firearms,Unknown Gun Type,,,,,,,Unknown firearms were used in the attack.,32.0,0.0,17.0,31.0,0.0,25.0,0,,,,,0.0,,,,,,,,,,,,,,,,"Moussa Bolly, ""Mali Says 32 Killed in Insurgent Attack on Northern Army Base,"" Associated Press, May 23, 2008.","BBC News, ""Tuareg Rebels in Deadly Mali Raid,"" BBC News, May 22, 2008.",,-9,-9,0,
200806070026,2008,6,7,,0,,Niger,Zinder,Tatokou,15.107421,8.547382,1.0,0,"The attack occurred in Tatokou, Zinder, Niger.","06/07/2008: On Saturday, in Tatokou, Zinder, Niger, assailants poured gasoline on a civilian and set him on fire, wounding him.No group claimed responsibility, although it was widely believed the Niger People's Movement for Justice was responsible.",1,1,1,0,,0.0,1,0,Armed Assault,,,Private Citizens & Property,Unnamed Civilian/Unspecified,,The target of the attack was a civilian.,Niger,,,,,,,,,,,Movement of Niger People for Justice (MNJ),,,,,,The specific motive for the attack is unknown.,0,-99.0,0.0,0.0,,,,,,,Incendiary,Gasoline or Alcohol,,,,,,,Gasoline was used in the attack.,0.0,0.0,0.0,1.0,0.0,0.0,-9,4.0,Unknown,,It Is unknown if the attack caused any property damage.,0.0,,,,,,,,,,,,,,,,"BBC Monitoring Africa, ""Tuareg Rebels Said Launch Fresh Attacks in South Central Niger"", LexisNexis Academic, Radio France Internationale, June 7, 2008.","National Counterterrorism Center, ""One Civilian Wounded in Assault by Suspected MNJ in Tatokou, Zinder, Niger"", Worldwide Incidents Tracking System, February 5, 2010.",,0,0,0,
200806220013,2008,6,22,,1,2008-06-25,Niger,Agadez,Arlit,18.73694,7.38528,1.0,0,"The hostage taking attack took place in the northern Nigerian town of Arlit, Agadez province.","06/22/2008: On Sunday, Niger Movement for Justice (MNJ) rebels kidnapped four French Nationals working for nuclear group Areva while they were jogging at gunpoint from the northern Nigerian town of Arlit, Agadez province. The rebels stated that they wanted ""to pass on the message to the Nigerian government that it's impossible to do anything concerning prospection and exploitation of minerals in Nigeria before problems are resolved in the north of the country."" MNJ rebels were in contact with the International Red Cross to negotiate a hostage release set for the following day on 06/23/2008 on Monday, however, the hostages were not released until 06/25/2008 on Wednesday.",1,1,1,0,,0.0,1,0,Hostage Taking (Kidnapping),,,Business,Industrial/Textiles/Factory,Areva,Four French Nationals working for nuclear group Areva,France,,,,,,,,,,,Movement of Niger People for Justice (MNJ),,,,,,"MNJ rebels stated that they wanted ""to pass on the message to the Nigerian government that it's impossible to do anything concerning prospection and exploitation of minerals in Nigeria before problems are resolved in the north of the country.""",0,-99.0,0.0,1.0,Other,,,,,0.0,Firearms,Unknown Gun Type,,,,,,,Unknown firearms were used in the firearm attack.,0.0,0.0,0.0,0.0,0.0,0.0,0,,,,,1.0,4.0,0.0,,3.0,,,0.0,,,,,,Hostage(s) released by perpetrators,4.0,,"Radio France Internationale, ""Nigerien Rebels to Release Kidnapped French Nationals,"" World News Connection, Radio France Internationale, June 23, 2008.","Agence France Presse, ""Rebels Abduct Four French Nationals in Niger,"" Lexis Nexis, Agence France Presse, June 22, 2008.",,0,1,1,
200807190003,2008,7,19,,1,,Mali,Kidal,Tessalit,20.197281,1.014004,1.0,0,,"7/19/2008: Suspected Tuareg rebels attacked a paramilitary outpost in Tessalit, Tessalit cercle, Mali. The assailants kidnapped at least three soldiers and injured two more; they also seized vehicles, weapons and ammunition. No group claimed responsibility for the incident and the outcome of the kidnapping is unknown.",1,1,0,1,Insurgency/Guerilla Action,0.0,1,0,Hostage Taking (Kidnapping),,,Military,Military Barracks/Base/Headquarters/Checkpost,Algerian paramilitary,A paramilitary outpost in Tessalit,Mali,,,,,,,,,,,Tuareg extremists,,,,,,"Specific motive is unknown; however, sources speculate that the assailants were a breakaway faction of the Tuareg rebels that are fighting more greater autonomy.",0,-99.0,0.0,0.0,,,,,,,Firearms,Unknown Gun Type,,,,,,,,0.0,0.0,0.0,2.0,0.0,0.0,-9,,,,,1.0,3.0,0.0,-99.0,-99.0,,,-9.0,,,,,,Unknown,-99.0,"Officials state that only three soldiers were kidnapped, while military personnel state that as many as a dozen soldiers were kidnapped.","Tiemoko Diallo, ""Gunmen attack Mali outpost, seize soldiers, weapons,"" Reuters, July 19, 2008.",,,-9,-9,0,
200812140030,2008,12,14,,0,,Niger,Niamey,Niamey,13.511596,2.125385,1.0,1,,"12/14/2008: On Sunday, assailants kidnapped the United Nations Special Envoy, his aide and his driver near Niamey, Niger. Elements of the Tuareg Front for the Forces of Rectification both claimed and denied responsibility.  Al-Qaeda Organization in Islamic Maghreb claimed responsibility. There was no reported property damage.",1,1,1,0,,0.0,1,0,Hostage Taking (Kidnapping),,,Government (Diplomatic),"International Organization (peacekeeper, aid agency, compound)",United Nations,The target was part of a United Nations special envoy.,Niger,,,,,,,,,,,Al-Qaida in the Islamic Maghreb (AQIM),,,,,,The specific motive for the attack is unknown.,0,-99.0,0.0,0.0,,,,,,,Firearms,Unknown Gun Type,,,,,,,Unknown firearms were used in the attack.,0.0,0.0,0.0,0.0,0.0,0.0,0,,,,,1.0,3.0,0.0,,,,,-9.0,,,,,,Unknown,-99.0,,"Canwest News Service, ""Rebels Deny Kidnapping Canadian Diplomats,"" LexisNexis Academic, Canwest News Service, December 17th, 2008.","National Counterterrorism Center, ""Two Diplomats, One Civilian Kidnapped near Niamey, Niger,"" Worldwide Incidents Tracking System, November 24th, 2009.",,1,1,0,
200812210008,2008,12,21,,0,,Mali,Bamako,Bamako,12.639665,-8.003534,1.0,1,The incident occured at a border post in Bamako.,"12/21/2008: On Sunday, in Bamako, Bamko, Mali, Tuareg rebels with heavy guns attacked a Mali-Mauritania border post using over 20 sport utility vehicles early in the morning, killing 14 soldiers, injuring 15 others, and possibly taking hostages. There was no reported damage.",1,1,1,0,,0.0,1,0,Armed Assault,,,Military,Military Barracks/Base/Headquarters/Checkpost,,A border checkpoint was the target of the Tuareg attack.,Mali,,,,,,,,,,,Tuareg extremists,,,,,,The specific motive for the attack is unknown.,0,-99.0,0.0,0.0,,,,,,,Firearms,Unknown Gun Type,,,,,,,Unknown firearms were used in the attack.,14.0,0.0,0.0,15.0,0.0,0.0,0,,,,,0.0,,,,,,,-9.0,,,,,,,,,"Press TV, ""Mali Rebels Kill 14 Soldiers at Border,"" Press TV, December 21st, 2008.","Agence France Presse, ""At Least 25 Reported Killed in Mali Clashes,"" LexisNexis Academic, Agence France Presse, December 21st, 2008.",,-9,-9,0,
200901070007,2009,1,7,,1,2009-01-12,Mali,Kidal,Unknown,18.449418,1.409841,4.0,1,at Adrar des Ifoghas Mountains,"01/07/2009: On Wednesday, near the Adrar des Ifoghas mountains in Kidal, Mali, assailants kidnapped the head of Energy of Mali (EDM) Kidal and an EDM accountant, two civilians and one child and stole the vehicle they were using. The two civilians and the child were immediately released. On January 12, 2009, the remaining victims were released by their captors. No group claimed responsibility, although it was widely believed that Tuaregs were responsible.",1,1,1,0,,0.0,1,0,Hostage Taking (Kidnapping),,,Business,,,Specific target unknown.,Mali,,,,,,,,,,,23 May Democratic Alliance (Algeria),Tuareg rebels,,,,,The specific motive for the attack is unknown.,0,-99.0,0.0,0.0,,,,,,,Unknown,,,,,,,,It is unknown if weapons were used in the attack.,0.0,0.0,0.0,0.0,0.0,0.0,0,,,,,1.0,5.0,0.0,,5.0,,,,,,,,,Hostage(s) released by perpetrators,5.0,,"Agence France Presse, ""Tuareg Rebels Release Two Hostages in Mali,"" LexisNexis Academic, Agence France Presse, January 12, 2009.","National Counterterrorism Center, ""Two Government Employees, Two Civilians, One Child Kidnapped by Suspected Tuaregs in Kidal, Mali,"" Worldwide Incidents Tracking System, December 2, 2009.",,1,1,0,
200901220003,2009,1,22,,1,2009-07-12,Niger,Tillabéri,Bani Bangou,15.0408,2.705,1.0,0,No additional information given,"11/22/2009-7/12/2009: 4 tourist on their way back from a festival were abducted by Al-Qa'idah in the Islamic Maghreb (AQLIM) affiliates near in border with Mali in Bani-Bangou Tillaberi, Niger. The 4 hostages; Edwin Dyer, Marianne Petzold, Gabrieela Greitner and Werner Greiner were then taken to Mali. Petzold and G. Greitner were released on April 22, 2009. W. Greiner was released on July 12, 2009. Edwin Dyer was killed by his captors on May 31, 2009.",1,1,1,0,,0.0,1,0,Hostage Taking (Kidnapping),Armed Assault,,Tourists,Tourist,2 Tourists,Gabriella and Werner Geiner,Switzerland,Tourists,Tourist,1 Tourist,Marianne Petzold,Germany,Tourists,Tourist,Tourist,Edwin Dyer,Great Britain,Al-Qaida in the Islamic Maghreb (AQIM),,,,,,"Money and to have members, such as Abu Qatada al-Filistine, released from prison",0,-99.0,0.0,1.0,Unknown,,,,,0.0,Firearms,Unknown Gun Type,,,,,,,,1.0,0.0,0.0,0.0,0.0,0.0,0,,,,,1.0,4.0,0.0,,170.0,,,1.0,-99.0,0.0,-99.0,0.0,,Combination,3.0,,"Joost van Egmond, ""British tourist kidnapped in West Africa in terrifying sandstorm,"" The Telegraph, January 25, 2009.","""Mali; Milirants Should Free Remaining Hostage,"" Africa News, June 4, 2009.","""Western tourists kidnapped,"" Northern Territory News, January 24, 2009.",1,1,1,
200901220012,2009,1,22,,1,,Mali,Timbuktu,Timbuktu,16.766589,-3.002562,1.0,0,"Attack occurred at an unknown location in the Saharan region of Mali, near the border with Niger.","01/22/2009: On Thursday, unknown gunmen have abducted four foreign nationals from an unknown location in Mali.  According to reports, the group was returning from a culture festival in northern Mali when their convoy was ambushed and their vehicle was cut off from the others in the group. A Swiss couple, a German, and a British national occupied the vehicle.  Authorities believe the attack to be the work of Tuareg rebels, operating in the area.",1,1,1,0,,0.0,1,0,Hostage Taking (Kidnapping),,,Tourists,Tourist,,The target was a Swiss couple.,Switzerland,Tourists,Tourist,,A British tourist was targeted.,Great Britain,Tourists,Tourist,,A German tourist was targeted.,Germany,23 May Democratic Alliance (Algeria),Tuareg rebels,,,,,The specific motive for the attack is unknown.,0,-99.0,0.0,0.0,,,,,,,Unknown,,,,,,,,It is unknown if weapons were used in the attack.,1.0,0.0,0.0,0.0,0.0,0.0,-9,4.0,Unknown,,The attack caused an unknown amount of property damage.,1.0,4.0,0.0,,-99.0,,,0.0,,,,,,Combination,2.0,"Two of the hostages were released in April 2009. Another hostage was killed on June 3, 2009. The fate of the remaining hostage is unknown.","United Press International, ""No Trace of Tourists Kidnapped in Mali,"" www.upi.com (January 26, 2009).","Agence France Presse, ""Qaeda Link Seen in Europeans' Kidnapping: Mali Official,"" Agence France Presse, January 28, 2009.","National Counterterrorism Center, ""One Civilian Wounded in Assault, Four Others Kidnapped in Hijacking and Armed Attack by AQIM in Niger,"" Worldwide Incidents Tracking System, December 2, 2009.",1,1,1,
200903060004,2009,3,6,,0,,Niger,Tillaberi,Mangaize,14.682649,1.951795,1.0,1,,"3/6/2009: Niger: Unnamed armed men attack cattle ranches, killing 10 and burning 30 square miles of pasture land near Mangaize in Tillaberi, Niger.",1,0,1,1,Intra/Inter-group Conflict,0.0,1,0,Armed Assault,Facility/Infrastructure Attack,,Private Citizens & Property,Farmer,Property,Cattle Farms,Niger,,,,,,,,,,,Unknown,,,,,,Unknown,0,-99.0,0.0,0.0,,,,,,,Firearms,Unknown Gun Type,Sabotage Equipment,,,,,,,10.0,0.0,0.0,0.0,0.0,0.0,1,4.0,Unknown,,A 5x6 mile pasture (30 square miles) was burned,0.0,,,,,,,,,,,,,,,,"Abdoulaye Massalatchi, ""Gunmen kill 10 in attacks on Niger herdsmen- radio,"" Reuters, March 9, 2009.",,,-9,-9,0,
200906030001,2008,12,14,,1,2009-04-22,Niger,Unknown,Niamey,13.707198,1.77831,1.0,1,In Niger near the border with Mail,"12/14/2008: Members of Al-Qa ida in the Lands of the Islamic Maghreb (AQLIM) abducted two Canadian diplomats in Niger. Robert Fowler and Louis Guay, along with their driver Soumana Moukaila, were kidnapped and taken over the border into Mali. The two Canadians had been dispatched to Niger with the intention of brokering a peace deal; the Tuareg rebels claimed responsibility for the incident but withdrew their statement after AQLIM claimed responsibility. Fowler and Guay were released unharmed on April 22, 2009; their driver had been released the month previous.",1,1,1,0,,0.0,1,0,Hostage Taking (Kidnapping),,,Government (Diplomatic),"Diplomatic Personnel (outside of embassy, consulate)",Canadian diplomats,"Robert Fowler and Louis Guay, two Canadian diplomats dispatched to Niger",Canada,Private Citizens & Property,Named Civilian,Civilian,"Soumana Moukaila, a civilian driver",Niger,,,,,,Al-Qaida in the Islamic Maghreb (AQIM),,,,,,"The specific motive is unknown; however, the diplomats had been sent to the area to attempt to broker a peace deal that would resolve the fighting between government and Tuareg rebels.",0,-99.0,0.0,1.0,Unknown,,,,,0.0,Unknown,,,,,,,,No specific mention of weapons was made,0.0,0.0,0.0,0.0,0.0,0.0,0,,,,,1.0,3.0,0.0,,131.0,Mali,Mali,0.0,,,,,,Hostage(s) released by perpetrators,3.0,"Sources speculate that the abductees were taken by the Tuareg rebels, then traded with AQLIM.","""2 Canadian diplomats freed after 4-month hostage ordeal in Africa,"" CBC News, April 22, 2009.","""Rights group urges Al-Qaeda to free Swiss hostage,"" Agence France-Presse, June 5, 2009.","""UPDATE 1-Qaeda in North Africa says killed British hostage,"" Reuters, June 3, 2009.",1,1,1,
200906050006,2009,6,5,,1,,Mali,Timbuktu,Timbuktu,16.77532,-3.008265,1.0,0,The attack took place in Tombouctou.,"06/05/2009: On Friday, in Tombouctou, Mali, armed gunmen kidnapped seven elected officials. Initially, the gunmen kidnapped nine people but later released two of them 25 miles from the scene of the abduction. No casualties, material damage, or motive for the attack was reported and no group has claimed responsibility for the kidnapping.",1,1,1,0,,0.0,1,0,Hostage Taking (Kidnapping),,,Government (General),"Government Personnel (excluding police, military)",,Nine elected officials,Mali,,,,,,,,,,,Unknown,,,,,,The specific motive for the attack is unknown.,0,-99.0,0.0,0.0,,,,,,,Firearms,Unknown Gun Type,,,,,,,Unknown firearms were used in the attack.,0.0,0.0,0.0,0.0,0.0,0.0,-9,4.0,Unknown,,It is unknown if the attack caused any property damage.,1.0,9.0,0.0,,-99.0,,,0.0,,,,,,Combination,2.0,,"Agence France Presse, ""Mali: Armed Men Kidnap Elected Officials From Northern Town,"" World News Connection, Agence France Presse, June 05, 2009.",,,-9,-9,0,
200906100014,2009,6,10,,0,,Mali,Timbuktu,Timbuktu,16.77532,-3.008265,1.0,0,The attack took place in Tombouctou.,"06/10/2009: On Wednesday night, in Tombouctou, Mali, two armed men fired upon and killed one senior military intelligence officer in his home. No material damage or motive for the attack was reported and no group claimed responsibility, although it was widely believed the al-Qaida Organization in Islamic Maghreb (AQIM) was responsible.",1,1,1,0,,0.0,1,0,Armed Assault,,,Military,"Military Personnel (soldiers, troops, officers, forces)",Malian Military,A senior military intelligence officer,Mali,,,,,,,,,,,Al-Qaida in the Islamic Maghreb (AQIM),,,,,,The specific motive for the attack is unknown.,0,2.0,0.0,0.0,,,,,,,Firearms,Unknown Gun Type,,,,,,,Unknown firearms were used in the attack.,1.0,0.0,0.0,0.0,0.0,0.0,-9,4.0,Unknown,,It is unknown if the attack caused any property damage.,0.0,,,,,,,,,,,,,,,,"Natioanl Counterterrorism Center, ""One Senior Military Officer Killed in Armed Attack by Suspected AQIM in Tombouctou, Mali,"" Worldwide Incidents Tracking System, November 18, 2009.","Agence France Presse, ""Suspected Al-Qaeda Members Kill Malian Army Officer,"" LexisNexis Academic, Agence France Presse, June 11, 2009.",,1,1,0,
200907030010,2009,7,3,,1,2009-07-04,Mali,Gao,Al-Wasra,16.266667,-0.05,2.0,0,The attack took place in al-Wasra in an unspecified city in Gao.,"07/03/2009: On Friday, in al-Wasra, Gao of northern Mali, Al-Qaeda in the Islamic Maghreb (AQIM) fighters claimed to have killed 28 Malian soldiers when they attacked their convoy. It also claims to have captured three other soldiers in the same attack. This incident was part of a series of two linked attacks that targeted Malian soldiers around Gao. The status of the three captured soldiers is unknown.",1,1,1,0,,0.0,1,0,Unknown,,,Military,Military Unit/Patrol/Convoy,Malian Military,A Malian Military convoy was targeted in this attack.,Mali,,,,,,,,,,,Al-Qaida in the Islamic Maghreb (AQIM),,,,,,The specific motive for the attack is unknown.,0,-99.0,0.0,0.0,,,,,,,Unknown,,,,,,,,Unknown weapons were used in the attack.,28.0,0.0,0.0,0.0,0.0,0.0,-9,4.0,Unknown,,It is unknown if the attack caused any property damage.,0.0,,,,,,,,,,,,,,,,"Agence France Presse, ""Mali: Al-Qaeda Claims Killing Twenty-Eight Malian Soldiers,"" World News Connection, July 8, 2009.","Agence France Presse, ""Mali Troops in Deadly Clashes with 'Al Qaeda': Ministry,"" LexisNexis Academic, Agence France Presse, July 6, 2009.","BBC Monitoring Africa, ""Malian Army, Al-Qaidah Elements Said Clash in Northwest,"" LexisNexis Academic, BBC Monitoring Africa, July 5, 2009.",1,1,0,
200911250008,2009,11,25,,1,2010-02-23,Mali,Gao,Menaka,15.914432,2.397368,1.0,1,"The attack took place in the village of Menaka in the region of Gao, Mali.","11/25/2009: On Wednesday evening, in Menaka, Gao, Mali, three unidentified gunmen kidnapped the chairman of a unknown local non-governmental organization doing research on malaria. The gunmen released him three months later on 02/23/2010 in a unknown location in Mali. The motive for the attack was to force the Mali government to release four militant members from prison. No material damage was reported in the attack and the group Al-Qaeda in the Land of the Islamic Maghreb (AQIM) has claimed responsibility for the attack in a online forum.",1,1,1,0,,0.0,1,0,Hostage Taking (Kidnapping),,,NGO,International NGO,,The chairman of a non-governmental organization,France,,,,,,,,,,,Al-Qaida in the Islamic Maghreb (AQIM),,,,,,The specific motive for the attack was to force the Mali government to release four militant members from prison.,0,3.0,0.0,1.0,"Posted to website, blog, etc.",,,,,,Firearms,Unknown Gun Type,,,,,,,Unknown firearms were used in the attack.,0.0,0.0,0.0,0.0,0.0,0.0,-9,4.0,Unknown,,It is unknown if the attack caused any property damage.,1.0,1.0,0.0,,89.0,,,0.0,,,,,,Hostage(s) released by perpetrators,1.0,,"Agence France Press, ""Mali: Armed Men Kidnap French National in North,"" World News Connection, Agence France Presse, November 26, 2009.","Agence France Presse, ""Mali Sends in Armed Forces to Look for Kidnapped Frenchman,"" World News Connection, Agence France Presse, November 27, 2009.","New York Times, ""French Hostage Freed in Mali,"" New York Times, February 23, 2010, http://www.nytimes.com/aponline/2010/02/23/world/AP-Al-Qaida-Hostage.html?_r=1&ref=africa.",1,1,1,
200912280005,2009,12,28,,0,,Niger,Tillaberi,Djaballa,14.648953,2.145024,2.0,0,,"12/28/2009: On Monday, in the village of Djambala in the province of Tillaberi, Niger, unidentified militants killed three Saudis nationals and injured three others in an attack on their vehicle. No material damage or motive for the attack was reported and no group has claimed responsibility for the attack. Security forces subsequently detained three suspected militants in connection with the attack.",1,1,1,0,,0.0,1,0,Unknown,,,Private Citizens & Property,Unnamed Civilian/Unspecified,,Civilians,Saudi Arabia,,,,,,,,,,,Unknown,,,,,,The specific motive for the attack is unknown.,0,-99.0,3.0,0.0,,,,,,,Unknown,,,,,,,,Unknown weapons were used in the attack.,3.0,0.0,0.0,3.0,0.0,0.0,0,,,,,0.0,,,,,,,,,,,,,,,,"Jane's Intelligence, ""Militants Kill Three Saudi Civilians in Niger,"" Terrorism Watch Report, December 29, 2009.","Thai Press Reports, ""Saudi Arabia / Nigeria:  Three Suspects Detained in Killing of Three Saudis in Niger,"" LexisNexis Academic, Thai Press Reports, December 30, 2009.",,-9,-9,1,
200912300005,2009,12,30,,0,,Niger,Tahoua,Telemses,15.6207,4.7832,1.0,0,"The attack took place in the village of Telemses located in the province of Tahoua, Niger.","12/30/2009: On Wednesday night, in the village of Telemses located in the province of Tahoua, Niger, armed assailants attacked the village by unknown means, killing one civilian and three soldiers. No material damage or motive for the attack was reported and no group claimed responsibility, although it was widely believed Al-Qaida Organization in Islamic Maghreb (AQIM) was responsible for the attack.",1,1,1,0,,0.0,1,0,Unknown,,,Private Citizens & Property,Village/City/Town/Suburb,,A village,Niger,,,,,,,,,,,Al-Qaida in the Islamic Maghreb (AQIM),,,,,,The specific motive for the attack is unknown.,0,-99.0,0.0,0.0,,,,,,,Unknown,,,,,,,,Unknown weapons were used in the attack.,4.0,0.0,0.0,0.0,0.0,0.0,-9,4.0,Unknown,,It is unknown if the attack caused any property damage.,0.0,,,,,,,,,,,,,,,,"National Counterterrorism Center, ""One Civilian, Seven Soldiers Killed by Suspected AQIM, in Telemses, Tahoua, Niger,"" Worldwide Incidents Tracking System, May 10, 2010.","Agence France Presse, ""Ten People Die as Gunmen Attack Village on Niger's Border With Mali,"" World News Connection, Agence France Presse, December 01, 2009.",,1,1,0,
201003080013,2010,3,8,,0,,Niger,Tillaberi,Ouallam,14.314794,2.088585,1.0,1,,"3/8/2010: Five soldiers were killed when unidentifies gunmen attacked the Tiloa military outpost in Tillaberi, Algeria. The gunman attacked using rockets and machine guns. Three assailants were also killed.",1,1,0,1,Insurgency/Guerilla Action,0.0,1,0,Armed Assault,,,Military,Military Barracks/Base/Headquarters/Checkpost,Military post,Tiloa military reconnaissance post,Niger,,,,,,,,,,,Unknown,,,,,,Unknown,0,-99.0,0.0,0.0,,,,,,,Firearms,Automatic or Semi-Automatic Rifle,,,,,,,Rockets and Machine Guns,8.0,0.0,3.0,,0.0,0.0,1,4.0,Unknown,,A four-wheel-drive vehicle was destroyed,0.0,,,,,,,,,,,,,,,,"Mahamane Laouali Can Dah, ""Five soldiers, three assailants killed in attack on Niger army post 8 March,"" Supreme council for the Restoration of Democracy in Niamey, March 9, 2010.","""At least five Niger soldiers killed in desert raid,"" Reuters, March 8, 2010.",,-9,-9,0,
201004040016,2008,4,3,,0,,Mali,Unknown,Unknown,,,5.0,0,"In the north of Mali, near the border of Algeria","4/3/2010: A military vehicle triggered a mine in northern Mali, near the border of Algeria, that had been planted by suspected Tuareg rebels. Five soldiers were seriously injured in the explosion; they were evacuated to Algeria. No group has claimed responsibility for the incident and specific motive is unknown.",1,1,0,1,Insurgency/Guerilla Action,0.0,1,0,Bombing/Explosion,,,Military,Military Transportation/Vehicle (excluding convoys),Malian soldiers,A military vehicle and soldiers in northern Mali,Algeria,,,,,,,,,,,Tuareg extremists,,,,,,Unknown,0,-99.0,0.0,0.0,,,,,,,Explosives,Landmine,,,,,,,,0.0,0.0,0.0,5.0,0.0,0.0,1,4.0,Unknown,,A vehicle hit a land mine,0.0,,,,,,,,,,,,,,,,"""Mali army vehicle hits mine, several wounded,"" Agence France-Presse, April 4, 2010.",,,-9,-9,1,
201004210003,2010,4,21,,1,2010-07-24,Niger,Agadez,In Abangarit,17.905421,6.04542,1.0,1,,"04/21/2010: On Wednesday, near the town of Inabangaret, Agadez, Niger, unknown armed assailants kidnapped a French national, Michel Germaneau, a retired engineer and one Algerian national, his driver. On 07/24/2010 the militants killed Germaneau in response to a raid on 07/22/2010 by French troops against a base in the Sahara desert where they suspected the hostages were being held. The status of the Algerian hostage is unknown. Al-Qaeda in the Islamic Maghreb (AQIM) claimed responsibility for the attack.",1,1,1,0,,0.0,1,0,Hostage Taking (Kidnapping),Armed Assault,,Private Citizens & Property,Laborer (General)/Occupation Identified,,"A retired engineer, Michel Germaneau, was targeted in the kidnapping.",France,Private Citizens & Property,Laborer (General)/Occupation Identified,,A civilian driver was targeted in the kidnapping.,Algeria,,,,,,Al-Qaida in the Islamic Maghreb (AQIM),,,,,,The specific motive of the kidnapping was to have an Al Qaeda prisoner exchanged for the hostage.,0,-99.0,0.0,1.0,Unknown,,,,,,Unknown,,,,,,,,It is unknown if weapons were used in the attack.,1.0,0.0,0.0,0.0,0.0,0.0,0,,,,,1.0,2.0,0.0,,94.0,,,0.0,,,,,,Combination,0.0,The status of the Algerian hostage is unknown.,"Kevin Liffey, ""Al Qaeda Threatens to Kill French Hostage in 15 Days,"" Reuters, July 12, 2010, http://www.alertnet.org/thenews/newsdesk/LDE66A0HR.htm.","Agence France Presse, ""Al-Qaidah Linked Claimed in Niger Kidnap of Frenchman and Algerian,"" World News Connection, Agence France Presse, April 23, 2010.","Firouz Sedarat & Emmanuel Jarry, ""Al Qaeda Says Kills French Hostage after Raid,"" Reuters, July 25, 2010, http://www.alertnet.org/thenews/newsdesk/LDE66O0DG.htm.",1,1,1,
201008100009,2010,8,10,,1,2010-08-16,Mali,Kidal,Kidal,18.442701,1.411332,1.0,0,The attack occurred in an unknown area of northern Kidal.,"08/10/2010: On Tuesday, in an unknown area of northern Kidal, Mali, unidentified assailants kidnapped by unknown means a Malian National Guard soldier and a Malian Customs guide. The guide was executed on 08/12/2010 by unknown means after the assailants found that he was carrying documents from a Western embassy based in the capital, Bamako. The soldier was released in the desert north of Mali on 08/16/2010 and told to rejoin his ranks. No group claimed responsibility, but the militant group Al-Qaeda branch in North Africa (AQIM) was thought to be responsible.",1,1,1,0,,0.0,1,0,Hostage Taking (Kidnapping),Armed Assault,,Military,"Military Personnel (soldiers, troops, officers, forces)",Malian National Guard,A Malian National Guard soldier was targeted in the attack.,Mali,Government (General),"Government Personnel (excluding police, military)",Malian Customs,A Malian Customs guide was targeted in the attack.,Mali,,,,,,Al-Qaida in the Islamic Maghreb (AQIM),,,,,,The specific motive for the attack is unknown.,0,-99.0,0.0,0.0,,,,,,,Unknown,,,,,,,,Unknown weapons were used in the attack.,1.0,0.0,0.0,0.0,0.0,0.0,0,,,,,1.0,2.0,0.0,,6.0,,,0.0,,,,,,Combination,1.0,The guide was killed on 08/12/2010 while the soldier was released in the desert north of Mali on 08/16/2010.,"Xinhua News Agency, ""Mali Says Two Nationals Kidnapped in Northern Region,"" Xinhua News Agency, August 12, 2010, http://news.xinhuanet.com/english2010/world/2010-08/12/c_13442484.htm.","Agence France Presse, ""Al-Qaeda Executes Mali guide: Security Source, Relative,"" World News Connection, Agence France Presse, August 12, 2010.","Agence France Presse, ""Al-Qaida Frees Malian Soldier in Desert,"" World News Connection, Agence France Presse, August 16, 2010.",1,1,0,
201009160020,2010,9,16,,0,,Niger,Agadez,Arlit,18.73694,7.38528,1.0,0,"The attack occurred in Arlit, Agadez, Niger.","09/16/2010: On Thursday morning, in Arlit, Agadez, Niger, unidentified militants kidnapped by unknown means five French, one Togo and one Madagascar national working for the French construction company, Vinci, and nuclear energy company, Areva. In 2011, one of the French hostages, the Togolese hostage, and the Malagasy hostage were released. On October 19, 2013 four remaining French hostages were released. Al Qaeda Islamic Maghreb claimed responsibility for the attack.",1,1,1,0,,0.0,1,0,Hostage Taking (Kidnapping),,,Business,Construction,Vinci Construction,Five French workers,France,Business,,Areva,One Togolese worker was targeted.,Togo,Business,,Areva,One Malagasy worker was targeted.,Madagascar,Al-Qaida in the Islamic Maghreb (AQIM),,,,,,The specific motive for the attack is unknown.,0,-99.0,0.0,1.0,Unknown,,,,,,Firearms,Automatic or Semi-Automatic Rifle,,,,,,,Kalashnikovs,0.0,0.0,0.0,0.0,0.0,0.0,-9,,,,It is unknown if the attack caused any property damage.,1.0,7.0,0.0,,1129.0,,,-9.0,,,,,,Hostage(s) released by perpetrators,7.0,,"Jane's Intelligence, ""Unidentified Militants Kidnap Seven Workers in Niger's Agadez,"" Terrorism Watch Report, Al-Jazeera, September 16, 2010.","John Irish, ""France Suspect Al Qaeda in Niger Kidnappings,"" Reuters, September 17, 2010, http://www.alertnet.org/thenews/newsdesk/LDE68G0F5.htm.","The Guardian, ""French men held hostage for 3 years by al-Qaida arrive back in France,"" October 30, 2013.",1,1,1,
201101050006,2011,1,5,,0,,Mali,Bamako,Bamako,12.648483,-7.99414,1.0,0,"The attack occurred at the French embassy in Bamako city, Bamako state, Mali.","01/05/2011: On Wednesday evening, in Bamako city, Bamako state, Mali, two Malian civilians were injured when a Tunisian man armed with an automatic pistol threw a Molotov cocktail at the French embassy. No damage was reported and no group claimed responsibility, but it was believed that the militant was a member of Al Qaeda in the Lands of Islamic Maghreb.",1,1,1,0,,0.0,1,0,Facility/Infrastructure Attack,,,Government (Diplomatic),Embassy/Consulate,French Government,The French embassy was targeted in the attack.,France,,,,,,,,,,,Al-Qaida in the Islamic Maghreb (AQIM),,,,,,The specific motive for the attack was to intimidate the French embassy in Mali.,0,1.0,0.0,0.0,,,,,,,Firearms,Handgun,Incendiary,Molotov Cocktail/Petrol Bomb,,,,,A Molotov cocktail and an automatic pistol were used in the attack.,0.0,0.0,0.0,2.0,0.0,0.0,-9,,,,It is unknown if the attack caused any property damage.,0.0,,,,,,,,,,,,,,,It is unknown if civilians were the target of this attack.,"Jane's Intelligence, ""IED Attack Targets French Embassy in Malian Capital,"" Terrorism Watch Report, Reuters, January 6, 2011.","Xinhua News Agency, ""Explosion Hits French Embassy in Mali: Report,"" Xinhua News Agency, January 6, 2011, http://news.xinhuanet.com/english2010/world/2011-01/06/c_13678066.htm.","Agence France Presse, ""Mali: Bomber of French Embassy Said Motivated by 'Hatred' against France,"" World News Connection, Agence France Presse, January 6, 2011.",1,1,1,
201101070008,2011,1,7,,1,2011-01-08,Niger,Niamey,Niamey,13.511596,2.125385,1.0,0,,"01/07/2011: On Friday night around 2230, in Niamey city, Niamey state, Niger, two unidentified armed militants that spoke Arabic entered the Toulousain restaurant and kidnapped two French aid workers, Antoine de Leocour and Vincent Delory. The militants placed the two hostages in a four-by-four vehicle with Benin plates in which two other armed men were waiting and drove to an unknown location. The two French hostages were killed on 01/08/2011 during a failed rescue attempt that was conducted by Niger security forces near the town of Ouallam, in Tillabery. The militant group Al-Qaeda in the Islamic Maghreb claimed responsibility for the attack.",1,1,1,0,,0.0,1,0,Hostage Taking (Kidnapping),Armed Assault,,NGO,International NGO,,Two French aid workers,France,,,,,,,,,,,Al-Qaida in the Islamic Maghreb (AQIM),,,,,,The specific motive for the attack is unknown.,0,-99.0,0.0,1.0,Unknown,,,,,,Unknown,,,,,,,,Unknown weapons were used in the attack.,2.0,0.0,0.0,0.0,0.0,0.0,-9,,,,It is unknown if the attack caused any property damage.,1.0,2.0,0.0,,1.0,,,-9.0,,,,,,Attempted Rescue,0.0,,"Jane's Intelligence, ""Suspected AQIM Militants Kill Two French Nationals in Niger,"" Terrorism Watch Report, BBC, January 10, 2011.","Agence France Presse, ""Mali: Frenchmen's Kidnap Reportedly Linked to Al Qaida,"" World News Connection, Agence France Presse, January 10, 2011.","Andrew Hammond & Jason Neely, ""UPDATE Two-Al Qaeda Claims Kidnapping of Frenchmen Found Dead,"" Reuters, January 13, 2011, http://www.trust.org/alertnet/news/update-2-al-qaeda-claims-kidnapping-of-frenchmen-found-dead/.",1,1,1,
201106120003,2011,6,12,,0,,Niger,Agadez,Arlit,18.739003,7.389477,1.0,0,,"06/12/2011: On Sunday, in Arlit, Agadez, Niger, unidentified militants opened fire on military forces in the area, killing one soldier and wounding six others while one militant was also killed during the exchange of fire. After the attack was over the soldiers seized a vehicle containing 640 kilograms of explosives, 435 detonators, various military weapons and 90,000 American dollars in cash. No group claimed responsibility for the attack, although Al Qaeda in the Islamic Maghreb (AQIM) militants were suspected.",1,1,0,1,Insurgency/Guerilla Action,0.0,1,0,Armed Assault,,,Military,"Military Personnel (soldiers, troops, officers, forces)",Nigerien Military,Nigerien military forces were targeted during the attack.,Niger,,,,,,,,,,,Al-Qaida in the Islamic Maghreb (AQIM),,,,,,The specific motive for the attack is unknown.,0,-99.0,0.0,0.0,,,,,,,Firearms,Unknown Gun Type,,,,,,,Unknown firearms were used in the attack.,2.0,0.0,1.0,6.0,0.0,0.0,0,,,,,0.0,,,,,,,,,,,,,,,,"Bate Felix, ""Two Die in Niger Clash With Sahel Bandits - Officials,"" Reuters, June 13, 2011, http://www.trust.org/alertnet/news/two-die-in-niger-clash-with-sahel-bandits-officials/.","Jane’s Intelligence, “Unidentified Militants Kill Soldier in Niger's Agadez,” Terrorism Watch Report, Reuters, June 14, 2011.","Sebastian Boe, ""Two Killed in Clashes between Security Forces and ""Bandits"" in Northern Niger,"" LexisNexis Academic, World Markets Research Centre, June 14, 2011.",1,1,0,
201106280011,2011,6,28,,0,,Mali,Unknown,Unknown,,,5.0,0,The attack occurred on the Mali-Mauritanian border in western Mali.,"06/28/2011: On Tuesday, in an unspecified location in western Mali, on the Mauritania-Mali border, three civilians were killed when an improvised explosive device (IED) detonated. No damages were reported. Local security officials suspect Al-Qaeda in the Islamic Maghreb (AQIM) militants planted the device shortly after a joint Mauritania-Mali counter-terrorism operation targeted a nearby suspected AQIM base a few days earlier.",1,1,1,0,,0.0,1,0,Bombing/Explosion,,,Unknown,,,The target was unknown.,Mali,,,,,,,,,,,Unknown,,,,,,The specific motive for the attack is unknown.,0,-99.0,0.0,0.0,,,,,,,Explosives,Other Explosive Type,,,,,,,An improvised explosive device was used in the attack.,3.0,0.0,0.0,0.0,0.0,0.0,0,,,,,0.0,,,,,,,,,,,,,,,,"Yahoo News, ""Three Killed in Mali Mine Explosion,"" Agence France Presse, http://news.yahoo.com/three-killed-mali-mine-explosion-154610953.html;_ylt=Al1hMwk3INova6wU3nLoQ7296Q8F;_ylu=X3oDMTM5NGI4Yjk1BHBrZwNhOWY0YWY2Ni1hOTIzLTM0ODUtOWFkMy1lMDJlMDVkMWUyYTcEcG9zAzcEc2VjA01lZGlhVG9wU3RvcnkEdmVyA2I1NjQwZDYwLWExOWYtMTFlMC1iZmYwLWFiZjJmN2RjZmI0Zg--;_ylg=X3oDMTFxaTJhMjZtBGludGwDdXMEbGFuZwNlbi11cwRwc3RhaWQDBHBzdGNhdAN3b3JsZHxhZnJpY2EEcHQDc2VjdGlvbnM-;_ylv=3 (June 28, 2011).","Jane’s Intelligence, “IED Attack Kills Three Civilians on Mauritania-Mali Border,” Terrorism Watch Report, Agence France Presse, July 1, 2011.",,-9,-9,0,
201111240026,2011,11,24,,0,2014-12-09,Mali,Mopti,Hombori,15.286179,-1.702154,1.0,0,at a hotel.,"11/24/2011: Suspected members of Al-Qa ida in the Lands of the Islamic Maghreb (AQLIM) kidnapped two French foreigners from a hotel in Hombori city, Cercle of Douentza, Mali. The two abductees, Phillipe Verdon and Serge Lazarevic, were listed as employees of the Mali-based business Mande Construction Immobiliere; however, both men were suspected of being employed in other ways. Reports from others attributed the two men with a variety of expertise, including military service, security experience, journalism, and geology. The specific motive behind the kidnapping is unknown. The body of Phillipe Verdon was discovered in Mali on July 15, 2013. Serge Lazarevic was released on December 9, 2014.",1,1,1,0,,0.0,1,0,Hostage Taking (Kidnapping),,,Private Citizens & Property,Named Civilian,Civilians,"Phillipe Verdon and Serge Lazarevic, two foreigners in Hombori",France,,,,,,,,,,,Al-Qaida in the Islamic Maghreb (AQIM),,,,,,AQIM reportedly killed Verdon in retaliation for France's intervention in Mali.,0,-99.0,0.0,0.0,,,,,,,Firearms,Unknown Gun Type,,,,,,,,1.0,0.0,0.0,0.0,0.0,0.0,0,,,,,1.0,2.0,0.0,,1111.0,,,-9.0,,,,,,Combination,1.0,,"Henry Samuel, ""France's last remaining hostage freed from al Qaeda,"" The Telegraph, December 9, 2014.","""Mali gunmen abduct two French nationals from hotel,"" The Guardian, November 24, 2011.","""French Mali hostage Philippe Verdon confirmed dead,"" BBC News, July 15, 2013.",1,1,1,
201111250020,2011,11,25,,1,,Mali,Timbuktu,Timbuktu,16.77532,-3.008265,1.0,0,Amanar restaurant in Timbuktu,"11/25/2011: Members of Al-Qa ida in the Lands of the Islamic Maghreb (AQLIM) abducted three tourists from Amanar restaurant in the city of Timbuktu, Timbuktu region, Mali. The hostages included Stephen McGown, a South African and British dual national; Johan Gustafson, a Swedish national; and Sjaak Rijke, a Dutch national. A fourth man, a German national, was shot and killed when he resisted getting into the assailants' vehicle. Rijke's wife was also present, but managed to evade capture. Rijke was unexpectedly freed during  an operation by French special forces in April 2015. In June 2015 a video was posted online in which McGown and Gustafson call on the governments of South Africa and Sweden to secure their release, but make no reference to negotiations or ransom. Gustafson was released in June 2017, and McGown was ultimately released in August 2017 following payment of a $4.2 million ransom.",1,1,1,0,,0.0,1,0,Hostage Taking (Kidnapping),,,Tourists,Tourist,Multinational tourists,"Tourists in Timbuktu, including German, Dutch, Swedish and British-South African nationals",Multinational,,,,,,,,,,,Al-Qaida in the Islamic Maghreb (AQIM),,,,,,"Specific motive is unknown; however, several tourists had been kidnapped in the region recently.  This has impacted tourism in Mali.",0,-99.0,0.0,1.0,Video,,,,,0.0,Firearms,Unknown Gun Type,,,,,,,,1.0,0.0,0.0,0.0,0.0,0.0,0,,,,,1.0,3.0,0.0,,2078.0,,,1.0,-99.0,0.0,4200000.0,0.0,3500000 Euros,Hostage(s) released by perpetrators,3.0,,"Sebastian Boe, ""Second Group of Foreign Nationals Kidnapped in Mali,"" IHS Global Insight Daily Analysis, November 28, 2011.","""Dutch hostage Sjaak Rijke freed in Mali,"" BBC News, April 6, 2015.","Spencer, Richard, ""New British 'front man' for jihadist videos revealed,"" The Telegraph, June 23, 2015.",1,1,1,
201201170029,2012,1,17,,0,,Mali,Gao,Menaka,15.914431,2.397368,1.0,0,in the Menaka district.,"01/17/2012: Assailants attacked Menaka, Gao, Mali. In addition to an unknown number of assailant casualties, at least one soldier was killed in the ensuing clash with Malian Army forces. The Azawad National Liberation Movement (MNLA) claimed responsibility for the incident and stated that the attack was carried out in order ""to protect and progressively re-occupy Azawad territory and also respond to Bamako's provocation.""",1,1,1,0,,0.0,1,0,Unknown,,,Private Citizens & Property,Village/City/Town/Suburb,Menaka Town,Town,Mali,Military,"Military Personnel (soldiers, troops, officers, forces)",Malian Army,Members,Mali,,,,,,Azawad National Liberation Movement (MNLA),,,,,,"The Azawad National Liberation Movement (MNLA) claimed responsibility for the incident and stated that the attack was carried out in order ""to protect and progressively re-occupy Azawad territory and also respond to Bamako’s provocation...""",0,-99.0,0.0,1.0,"Posted to website, blog, etc.",,,,,,Unknown,,,,,,,,,1.0,0.0,,,0.0,,-9,,,,,0.0,,,,,,,,,,,,,,,,"""Mali Army Bombs Tuareg Rebel Positions, Arrests Four,"" AFP (World Service), January 17, 2012.","""UPDATE 1-Mali,"" Reuters News, January 17, 2012.","""Tuareg - Mali - 2012,"" GlobalSecurity.org, July 28, 2013.",0,0,0,
201201180030,2012,1,18,,0,,Mali,Kidal,Aguelhoc,19.464848,0.856393,1.0,0,in the Tessalit district.,"01/18/2012: Assailants opened fire on Malian Army personnel in an attempt to take over Aguelhoc, Kidal, Mali. At least 36 people, including one soldier and 35 assailants, were killed in the ensuing clash. This was one of two related attacks in different cities in Kidal on this date. The Azawad National Liberation Movement (MNLA) claimed responsibility for the incidents. Sources also attributed the attack to Al-Qaida in the Islamic Maghreb (AQIM) and Ansar al-Dine (Mali).",1,1,1,0,,1.0,1,0,Armed Assault,,,Military,"Military Personnel (soldiers, troops, officers, forces)",Malian Army,Soldiers,Mali,Private Citizens & Property,Village/City/Town/Suburb,Aguelhok Town,Town,Mali,,,,,,Azawad National Liberation Movement (MNLA),,Al-Qaida in the Islamic Maghreb (AQIM),,Ansar al-Dine (Mali),,,0,-99.0,0.0,1.0,Personal claim,0.0,,0.0,,,Firearms,Unknown Gun Type,,,,,,,,36.0,0.0,35.0,,0.0,,-9,,,,,0.0,,,,,,,,,,,,,,,,"""Mali military battles Taureg [sic] rebels in north,"" Al Jazeera, January 20, 2012.","""Mali Troops, Tuareg Rebels Battle in Second Town in North,"" AFP (World Service), January 18, 2012.","""Al-Qa'idah said involved in northern Mali fighting,"" Al-Jazirah Satellite Channel Television, January 27, 2012.",0,1,0,"201201180030, 201201180031"
201201180031,2012,1,18,,0,,Mali,Kidal,Tessalit,20.252065,0.981526,1.0,0,in the Tessalit district.,"01/18/2012: Assailants opened fire on Malian Army personnel in an attempt to take over Tessalit, Kidal, Mali. At least 11 people, including one soldier and 10 assailants, were killed in the ensuing clash. This was one of two related attacks in different cities in Kidal on this date. The Azawad National Liberation Movement (MNLA) claimed responsibility for the incidents.",1,1,1,0,,1.0,1,0,Armed Assault,,,Military,"Military Personnel (soldiers, troops, officers, forces)",Malian Army,Soldiers,Mali,Private Citizens & Property,Village/City/Town/Suburb,Tessalit Town,Town,Mali,,,,,,Azawad National Liberation Movement (MNLA),,,,,,,0,-99.0,0.0,1.0,Personal claim,,,,,,Firearms,Unknown Gun Type,,,,,,,,11.0,0.0,10.0,,0.0,,-9,,,,,0.0,,,,,,,,,,,,,,,,"""Mali military battles Taureg [sic] rebels in north,"" Al Jazeera, January 20, 2012.","""Mali Troops Battle Tuareg as Rebels Launch Offensive in Several Northern Towns,"" AFP (World Service), January 18, 2012.","""Tuareg - Mali - 2012,"" GlobalSecurity.org, July 28, 2013.",0,0,0,"201201180030, 201201180031"
201201260038,2012,1,26,,0,,Mali,Gao,Anderamboukane,15.421337,3.021221,1.0,0,,"01/26/2012: Assailants opened fire on Malian Army personnel in an attempt to take over Anderamboukane, Gao, Mali. There were an unknown number of casualties in the ensuing clash. This was one of two related attacks in different cities in Mali on this date. The Azawad National Liberation Movement (MNLA) claimed responsibility for the incidents. Officials also attributed the attacks to Al-Qaida in the Islamic Maghreb (AQIM).",1,1,1,0,,1.0,1,0,Armed Assault,,,Military,"Military Personnel (soldiers, troops, officers, forces)",Malian Army,Soldiers,Mali,Private Citizens & Property,Village/City/Town/Suburb,Anderamboukane Town,Town,Mali,,,,,,Azawad National Liberation Movement (MNLA),,Al-Qaida in the Islamic Maghreb (AQIM),,,,,0,-99.0,0.0,1.0,Personal claim,0.0,,,,,Firearms,Unknown Gun Type,,,,,,,,,0.0,,,0.0,,-9,,,,,0.0,,,,,,,,,,,,,,,,"""Mali Blames Al Qa'ida as Rebels Launch New Attacks,"" AFP (World Service), January 27, 2012.","""Tuareg rebels attack fifth town in Mali,"" Al Jazeera, January 26, 2012.","""Mali: Tuareg Rebels Fight With Malian Army in Northern Town of Anderamboukane,"" AFP (World Service), January 26, 2012.",0,1,0,"201201260038, 201201260039"
201201260039,2012,1,26,,0,,Mali,Timbuktu,Lere,15.71704,-4.90009,1.0,0,,"01/26/2012: Assailants opened fire on Malian Army personnel in an attempt to take over Lere, Timbuktu, Mali. There were an unknown number of casualties in the ensuing clash. This was one of two related attacks in different cities in Mali on this date. The Azawad National Liberation Movement (MNLA) claimed responsibility for the incidents. Officials also attributed the attacks to Al-Qaida in the Islamic Maghreb (AQIM).",1,1,1,0,,1.0,1,0,Armed Assault,,,Military,"Military Personnel (soldiers, troops, officers, forces)",Malian Army,Soldiers,Mali,Private Citizens & Property,Village/City/Town/Suburb,Lere Town,Town,Mali,,,,,,Azawad National Liberation Movement (MNLA),,Al-Qaida in the Islamic Maghreb (AQIM),,,,,0,-99.0,0.0,1.0,Personal claim,0.0,,,,,Firearms,Unknown Gun Type,,,,,,,,,0.0,,,0.0,,-9,,,,,0.0,,,,,,,,,,,,,,,,"""Mali Blames Al Qa'ida as Rebels Launch New Attacks,"" AFP (World Service), January 27, 2012.","""Tuareg rebels attack fifth town in Mali,"" Al Jazeera, January 26, 2012.","""Tuareg - Mali - 2012,"" GlobalSecurity.org, July 28, 2013.",0,1,0,"201201260038, 201201260039"
201203020001,2012,3,2,,1,,Mali,Mopti,Tenenkou,14.456304,-4.91942,1.0,0,,"03/02/2012: Assailants kidnapped three soldiers and took four service vehicles from Tenekou town, Mopti region, Mali. No group claimed responsibility for the attack; however, sources attributed it to Tuaregs.",1,1,0,1,Insurgency/Guerilla Action,0.0,1,0,Hostage Taking (Kidnapping),,,Military,"Military Personnel (soldiers, troops, officers, forces)",Malian Army,Soldiers,Mali,,,,,,,,,,,Tuareg extremists,,,,,,,0,-99.0,0.0,0.0,,,,,,,Unknown,,,,,,,,,,0.0,0.0,,0.0,0.0,1,4.0,Unknown,-99.0,Four service vehicles were stolen in this attack.,1.0,3.0,0.0,,-99.0,,,0.0,,,,,,Unknown,-99.0,,"""Tuareg   rebels abduct   three Mali soldiers: local officials,"" Agence France Presse -- English, March 2, 2012.","""Tuareg fighters abduct soldiers in Mali,"" Al Jazeera English, March 2, 2012.",,-9,-9,0,
201203210038,2012,3,22,,0,,Mali,Bamako,Bamako,12.650052,-7.999956,1.0,0,,"03/22/2012: Acting outside their official capacity, soldiers attacked the presidential compound in Bamako city, Bamako Capital district, Mali. The soldiers, calling themselves the National Committee for the Restoration of Democracy and State (CNRDR), successfully overthrew President Amadou Toumani Toure. The CNRDR spokesperson stated that the overthrow of President Toure's regime was the result of a ""lack of adequate material to defend the nation."" One soldier was killed and 40 injured in the attack.",1,1,1,0,,0.0,1,0,Armed Assault,,,Government (General),Head of State,Government of Mali,Presidential Palace,Mali,,,,,,,,,,,National Committee for the Restoration of Democracy and State (CNRDR),,,,,,"The specific motive is unknown; however, sources suspected that former Malian soldiers and now current members of the National Committee for the Restoration of Democracy and State (CNRDR) ousted the president because he failed to quell the Tuareg rebellion in northern Mali.",0,-99.0,0.0,1.0,Call (post-incident),,,,,,Firearms,Unknown Gun Type,,,,,,,Heavy weapons were used in the attack.,1.0,0.0,0.0,40.0,0.0,0.0,1,4.0,Unknown,-99.0,The presidential palace was damaged in this attack.,0.0,,,,,,,,,,,,,,,,"""Mali's Tuareg Rebels Continue Fighting as World Condemns Coup,"" AFP (World Service), March 23, 2012.","""Mali soldiers claim coup over regime 'incompetence',"" Agence France Presse, March 22, 2012.","""Mali mutiny 'topples' President Toure,"" Al Jazeera English, March 21, 2012.",0,0,0,
201204050014,2012,4,5,,1,2014-08-30,Mali,Gao,Gao,16.273291,-0.050689,1.0,0,,"04/05/2012: Assailants attacked the Algerian consulate and abducted seven diplomats in Gao city, Gao region, Mali. The Movement for Oneness and Jihad in West Africa (MUJAO) claimed responsibility for the attack in a video and demanded that Algeria pay a ransom of 15 million euros and free prisoners in exchange for the release of the kidnapped diplomats. Three hostages were freed in July, 2012, and another two were released on August 30, 2014. The remaining two hostages died while in captivity.",1,1,1,0,,0.0,1,0,Hostage Taking (Kidnapping),,,Government (Diplomatic),Embassy/Consulate,Algerian Ministry of Foreign Affairs,Consulate Staff,Algeria,,,,,,,,,,,Movement for Oneness and Jihad in West Africa (MUJAO),,Boko Haram,,,,The Movement for Oneness and Jihad in West Africa (MUJAO) claimed responsibility for the attack in a video and demanded that Algeria pay a ransom of 15 million euros and free prisoners in exchange for the release of the kidnapped diplomats.,0,-99.0,0.0,1.0,E-mail,0.0,,,,,Firearms,Automatic or Semi-Automatic Rifle,,,,,,,AK-47 assault rifles were used in the attack.,2.0,0.0,0.0,0.0,0.0,0.0,1,3.0,Minor (likely < $1 million),-99.0,The Algerian Consulate was damaged in this attack.,1.0,7.0,0.0,,877.0,,,1.0,19297500.0,0.0,0.0,0.0,"In addition to demanding 15 million Euro, the perpetrators also demanded the release of prisoners in exchange for the release of the diplomats.",Combination,5.0,,"""UPDATE 1-Algeria says diplomats abducted in northern Mali,"" Reuters News, April 5, 2012.","""Algerian Diplomats Freed After Two Years' Captivity In Mali,"" AFP (World Service), August 30, 2014.","""Mali Islamists offer freedom deal for Algerian hostages,"" Agence France Presse -- English, June 23, 2013.",0,1,1,
